,identifiant_unique,result_type,result_housenumber,result_street,result_postcode,result_citycode,result_city,result_district,result_context,result_score,latitude,longitude,origin
0,lescreadevicky_203741_reparation_0633175984,housenumber,3,Impasse des Tuiliers,71210,71310,Montchanin,,"71, Saône-et-Loire, Bourgogne-Franche-Comté",0.9459581818181816,46.758914,4.46914,cas_1
1,bijouterie_obrecht_93995_reparation,housenumber,24,Rue de la Gare,68690,68217,Moosch,,"68, Haut-Rhin, Grand Est",0.9560809090909091,47.861686,7.051751,cas_1
2,amberley_design_services_172205_reparation_0546861272,housenumber,4,la Taillezerie,17150,17052,Boisredon,,"17, Charente-Maritime, Nouvelle-Aquitaine",0.94121,45.330382,-0.537904,cas_1
3,bijoux_enora_19597_reparation_0669640932,housenumber,2,Chemin des Virgiles,83120,83115,SAINTE-MAXIME,,"83, Var, Provence-Alpes-Côte d'Azur",0.965511818181818,43.313837,6.628483,cas_21
4,simonet_lionel_213050_reparation_0680960766,housenumber,66,Rue du Parc,77360,77479,Vaires-sur-Marne,,"77, Seine-et-Marne, Île-de-France",0.9654054545454546,48.866954,2.63824,cas_1
5,sarl_bimob_60746_reparation_0232580314,housenumber,30bis,R Hyppolite Lozier,27320,27438,Nonancourt,,"27, Eure, Normandie",0.7642066233766233,48.773222,1.192855,cas_1
6,bernard_emilie_139818_reparation_0676243532,housenumber,1,Domaine des Champs Fleuris,42600,42299,Savigneux,,"42, Loire, Auvergne-Rhône-Alpes",0.9537290909090907,45.60926,4.087256,cas_1
7,ulmaison_cotieredombes_vestiaire_60664_sinoe_0469184401,street,,Place Maurice Reverdy,1360,01224,Loyettes,,"01, Ain, Auvergne-Rhône-Alpes",0.947222727272727,45.776089,5.208652,cas_32
8,geffroy_tyffanie_143650_reparation,street,,Rue Alfred Sabatier,34120,34199,Pézenas,,"34, Hérault, Occitanie",0.8343271498771498,43.46096,3.422434,cas_1
9,atelier_valinor_183264_reparation_0450528923,housenumber,320,Rue des Grangettes,74350,74096,Cruseilles,,"74, Haute-Savoie, Auvergne-Rhône-Alpes",0.9563381818181816,46.028515,6.111143,cas_1
10,agriprocenter_132363_reparation_0613946527,housenumber,2,Route de Brumath,67350,67304,Morschwiller,,"67, Bas-Rhin, Grand Est",0.844812628992629,48.81803,7.633257,cas_1
11,azur_decoration_interieur_205615_reparation_0620563004,housenumber,347,Allée Jacques Cartier,6210,06079,Mandelieu-la-Napoule,,"06, Alpes-Maritimes, Provence-Alpes-Côte d'Azur",0.957643636363636,43.529101,6.93553,cas_32
12,paya_frederic_173528_reparation_0626141299,housenumber,13,Avenue de Picot,33320,33162,Eysines,,"33, Gironde, Nouvelle-Aquitaine",0.970820909090909,44.883503,-0.648551,cas_1
13,maleplate_maxime_190876_reparation_0680155360,street,,Avenue Edouard Boisserie,24750,24053,BOULAZAC ISLE MANOIRE,,"24, Dordogne, Nouvelle-Aquitaine",0.96512,45.174711,0.754201,cas_21
14,forestier_jeancyril_135757_reparation_0618599266,housenumber,15,Grande Rue,45190,45344,Villorceau,,"45, Loiret, Centre-Val de Loire",0.9544863636363636,47.799114,1.598012,cas_1
15,art_plus_cadre_exploitation_14391_reparation,street,,Esplanade du liourat,13127,13117,Vitrolles,,"13, Bouches-du-Rhône, Provence-Alpes-Côte d'Azur",0.5261172727272727,43.43577,5.258116,cas_1
16,mtb_33_mecanique_toutes_bicyclettes_173343_reparation_0680842072,housenumber,10,Allée de la Cheneraie,33210,33533,Toulenne,,"33, Gironde, Nouvelle-Aquitaine",0.9551281818181816,44.55076,-0.270844,cas_1
17,mainemare_benjamin_122165_reparation,street,,route du Forestel,76390,76479,Nullemont,,"76, Seine-Maritime, Normandie",0.5591803171247357,49.764472,1.647028,cas_1
18,sarl_delor_vincent_141314_reparation,locality,,,48700,48127,Monts-de-Randon,,"48, Lozère, Occitanie",0.6571674447174447,44.639673,3.475438,cas_1
19,tregor_nature_158188_reparation,street,,Rue de la Haute Rive,22300,22113,Lannion,,"22, Côtes-d'Armor, Bretagne",0.8093584848484848,48.729349,-3.464896,cas_1
20,capetek_13651_reparation,housenumber,268,Avenue de la capelette,13010,13210,Marseille,Marseille 10e Arrondissement,"13, Bouches-du-Rhône, Provence-Alpes-Côte d'Azur",0.6421293006993006,43.279092,5.41336,cas_1
21,digiware_174772_reparation_0677228513,housenumber,2,Route de la Plaine de Bretou,24500,24167,EYMET,,"24, Dordogne, Nouvelle-Aquitaine",0.9492027272727273,44.673668,0.40309,cas_21
22,eldorado_153260_reparation,street,,rue Paul Sabatier,29200,29019,Brest,,"29, Finistère, Bretagne",0.8749580058651025,48.428747,-4.465566,cas_1
23,sos_info_services_154156_reparation_0607063434,housenumber,4,Cite de la Croix Rouge,29310,29136,Locunolé,,"29, Finistère, Bretagne",0.8058075119617224,47.935918,-3.47235,cas_1
24,hatochi_abdellali_148876_reparation_0698057270,housenumber,1,Rue Montaigne,32000,32013,Auch,,"32, Gers, Occitanie",0.9637027272727272,43.638059,0.594223,cas_1
25,fournier_didier_162318_reparation_0636365133,housenumber,90,Rue Pierre Renaudel,33130,33039,BÈGLES,,"33, Gironde, Nouvelle-Aquitaine",0.9687281818181818,44.808549,-0.571085,cas_21
26,medicalandes_169493_reparation_0642422981,housenumber,28,Rue du Théâtre,40200,40184,Mimizan,,"40, Landes, Nouvelle-Aquitaine",0.9591781818181818,44.20144,-1.225566,cas_1
27,klinic_informatic_specialiste_apple_et_microsoudure__drupal_m1224_0613151195,housenumber,5,Rue des Forges,60340,60584,SAINT-LEU-D'ESSERENT,,"60, Oise, Hauts-de-France",0.9598745454545454,49.217626,2.419711,cas_21
28,era_176035_reparation_0648318180,housenumber,12,Rue de Tujean,33290,33056,Blanquefort,,"33, Gironde, Nouvelle-Aquitaine",0.96509,44.923583,-0.633001,cas_1
29,prolaques_109175_reparation,street,,Route de la Baronne,6640,06122,Saint-Jeannet,,"06, Alpes-Maritimes, Provence-Alpes-Côte d'Azur",0.7883195348837209,43.744164,7.176828,cas_32
30,la_tournerie_198979_reparation_0612227673,housenumber,5,Rue des 2 Ponts,58210,58058,LA CHAPELLE-SAINT-ANDRÉ,,"58, Nièvre, Bourgogne-Franche-Comté",0.8198928163992869,47.394068,3.345862,cas_21
31,bernard_michele_70814_reparation_0662748879,housenumber,8,Allée des Capucines,44390,44149,Saffré,,"44, Loire-Atlantique, Pays de la Loire",0.9522545454545454,47.503176,-1.580269,cas_1
32,c_renov_101001_reparation,housenumber,42,Rue du Vivier,59154,59160,Crespin,,"59, Nord, Hauts-de-France",0.9604481818181816,50.417603,3.662774,cas_1
33,garage_landouzi_76680_reparation_0323974022,housenumber,41,Rue de Verdun,2500,02445,Luzoir,,"02, Aisne, Hauts-de-France",0.9470127272727272,49.927752,3.970673,cas_1
34,m_siad_mohamed_222357_reparation_0619767450,locality,,,84700,84129,SORGUES,,"84, Vaucluse, Provence-Alpes-Côte d'Azur",0.9520145454545452,44.012857,4.875429,cas_21
35,cccreations_133540_reparation_0645968545,housenumber,14,Rue Pasteur,38300,38053,Bourgoin-Jallieu,,"38, Isère, Auvergne-Rhône-Alpes",0.9697672727272726,45.599436,5.268767,cas_1
36,2_roues_et_demi__cafe_cycles_du_buech_177805_reparation_0664537938,housenumber,6,Boulevard Gambetta,5400,05179,Veynes,,"05, Hautes-Alpes, Provence-Alpes-Côte d'Azur",0.9558118181818182,44.533255,5.820395,cas_1
37,pacaud_nicolas_139366_reparation_0607839411,housenumber,3,Rue la Petite Rue Creuse,45170,45301,Santeau,,"45, Loiret, Centre-Val de Loire",0.8702462937062937,48.105915,2.145141,cas_1
38,m_asmus_david_54994_reparation,street,,Rue de Wazemmes,59000,59350,Lille,,"59, Nord, Hauts-de-France",0.4635085714285713,50.622842,3.0607,cas_1
39,laoa_144296_reparation_0467308618,housenumber,37,Boulevard du Soleil,34300,34003,Agde,,"34, Hérault, Occitanie",0.7196679338842975,43.304266,3.484389,cas_1
40,lartisan_rempailleur_210832_reparation_0143354176,housenumber,85,Rue Daguerre,75014,75114,PARIS,Paris 14e Arrondissement,"75, Paris, Île-de-France",0.9787354545454544,48.835793,2.324483,cas_21
41,beteille_arnaud_camille_raymond_147054_reparation,housenumber,83,Route de Saint-Hippolyte,81640,81170,Monestiés,,"81, Tarn, Occitanie",0.8090700826446281,44.058417,2.077061,cas_1
42,bkcs_97784_reparation_0671812490,housenumber,7,Route d'Etain,55210,55551,VIGNEULLES-LÈS-HATTONCHÂTEL,,"55, Meuse, Grand Est",0.9539563636363636,48.992738,5.713833,cas_21
43,bacou_gautrand_annecamille_213499_reparation_0633378385,housenumber,10,Passage Lathuille,75018,75118,PARIS,Paris 18e Arrondissement,"75, Paris, Île-de-France",0.8029690909090909,48.884881,2.327793,cas_21
44,jose_miguel_petit_bricolage_et_espaces_verts_173461_reparation_0624006283,housenumber,3,Rue Xerri Karrika,64250,64160,Cambo-les-Bains,,"64, Pyrénées-Atlantiques, Nouvelle-Aquitaine",0.9579299999999998,43.361714,-1.39985,cas_1
45,selingue_aurelie_137750_reparation,street,,Lieu Dit Montrousset,28400,28342,SAINT-JEAN-PIERRE-FIXTE,,"28, Eure-et-Loir, Centre-Val de Loire",0.7753263636363635,48.296394,0.841979,cas_21
46,taleb_sofiane_218238_reparation_0769787373,housenumber,49,Rue Nollet,75017,75117,PARIS,Paris 17e Arrondissement,"75, Paris, Île-de-France",0.9805781818181816,48.886788,2.321495,cas_21
47,vonick_et_technick_158267_reparation,housenumber,5,La Chapelle Saint Thual,22980,22180,Plélan-le-Petit,,"22, Côtes-d'Armor, Bretagne",0.8003303030303031,48.417379,-2.197034,cas_1
48,m_guillemin_fabien_199907_reparation_0679220400,housenumber,2133,Route du Bourg,71330,71045,Bouhans,,"71, Saône-et-Loire, Bourgogne-Franche-Comté",0.944260909090909,46.770053,5.29585,cas_1
49,voisin_hugues_2358_reparation_0953968479,housenumber,20,Allée du clos du puits,73420,73103,Drumettaz-Clarafond,,"73, Savoie, Auvergne-Rhône-Alpes",0.8988245454545454,45.659564,5.915779,cas_1
50,affutsur_100360_reparation_0789921928,housenumber,11,Rue Duguesclin,43000,43157,Le Puy-en-Velay,,"43, Haute-Loire, Auvergne-Rhône-Alpes",0.962251818181818,45.045921,3.877522,cas_1
51,mme_sarramea_audrey_151948_reparation,housenumber,103,Chemin du Carrérot,65200,65320,Montgaillard,,"65, Hautes-Pyrénées, Occitanie",0.9451754545454544,43.124152,0.109691,cas_1
52,batman_192719_reparation_0698281933,housenumber,16,Rue Alfred de Musset,62300,62498,Lens,,"62, Pas-de-Calais, Hauts-de-France",0.9649318181818182,50.436499,2.818791,cas_1
53,tioka_170636_reparation,municipality,,,64220,64229,Gamarthe,,"64, Pyrénées-Atlantiques, Nouvelle-Aquitaine",0.4393133766233766,43.202901,-1.140882,cas_1
54,gallois_jimmy_222755_reparation_0658126802,housenumber,6,Chemin du Clos,69140,69286,Rillieux-la-Pape,,"69, Rhône, Auvergne-Rhône-Alpes",0.9712290909090908,45.834428,4.908411,cas_1
55,boulard_yannick_219988_reparation_0660187570,housenumber,7,Avenue des Ecoles,91320,91689,Wissous,,"91, Essonne, Île-de-France",0.7955080165289256,48.73793,2.324487,cas_1
56,m_nemoz_bruno_140500_reparation,housenumber,2,Avenue de la Tour,30210,30260,Saint-Hilaire-d'Ozilhan,,"30, Gard, Occitanie",0.9501772727272728,43.969918,4.591915,cas_1
57,le_faubourg_du_cycle_162848_reparation_0553229464,housenumber,69,Rue du Maréchal Joffre,24100,24037,Bergerac,,"24, Dordogne, Nouvelle-Aquitaine",0.9685,44.847275,0.477909,cas_1
58,vidhop_3189_reparation,housenumber,200,Grande Rue,1570,01159,Feillens,,"01, Ain, Auvergne-Rhône-Alpes",0.9644672727272726,46.330747,4.886161,cas_1
59,abarma_122456_reparation_0670334284,housenumber,7,Impasse du Moulin,76390,76344,Haudricourt,,"76, Seine-Maritime, Normandie",0.9389327272727273,49.734394,1.707662,cas_1
60,ok_services_176014_reparation_0760767191,housenumber,42bis,Boulevard du Pyla,33260,33529,La Teste-de-Buch,,"33, Gironde, Nouvelle-Aquitaine",0.9125729206963248,44.633554,-1.16117,cas_1
61,nouvon_denis_165606_reparation,housenumber,16,Rue Porte de Marillac,16110,16281,La Rochefoucauld-en-Angoumois,,"16, Charente, Nouvelle-Aquitaine",0.913154129429892,45.740952,0.387074,cas_1
62,vision_206589_reparation_0633249002,street,,Zae les vernays,74210,74104,Doussard,,"74, Haute-Savoie, Auvergne-Rhône-Alpes",0.7524790909090908,45.773775,6.235607,cas_1
63,ace_sarl_207170_reparation_0668510528,housenumber,450,Route du Bouilh,33240,33366,Saint-André-de-Cubzac,,"33, Gironde, Nouvelle-Aquitaine",0.9672027272727272,45.003684,-0.447838,cas_1
64,m_martin_nicolas_97657_reparation_0671508451,housenumber,14,Rue de Bezonvaux,55100,55545,Verdun,,"55, Meuse, Grand Est",0.9617263636363634,49.162263,5.395513,cas_1
65,mcd_160147_reparation,housenumber,241,Route de Capbreton,40150,40004,Angresse,,"40, Landes, Nouvelle-Aquitaine",0.9595754545454546,43.657144,-1.374921,cas_1
66,berenger_106141_reparation,housenumber,7,Rue de la Lobe,57680,57030,Arry,,"57, Moselle, Grand Est",0.9428881818181818,48.994744,6.05617,cas_1
67,gm_couture_105014_reparation_0622822410,housenumber,86,Cours Jean Jaures,38130,38151,Échirolles,,"38, Isère, Auvergne-Rhône-Alpes",0.9751963636363636,45.14488,5.704267,cas_1
68,buro_typ_135026_reparation_0254033233,housenumber,49,Route de Bourges,36100,36088,Issoudun,,"36, Indre, Centre-Val de Loire",0.9605745454545452,46.95033,2.00108,cas_1
69,quillere_damien_137530_reparation,housenumber,7,Allée des Mirabelles,18570,18267,Trouy,,"18, Cher, Centre-Val de Loire",0.9556136363636364,47.006806,2.353728,cas_1
70,burgaud_nicolas_121328_reparation_0235236144,street,,Grand Rue,76116,76548,Ry,,"76, Seine-Maritime, Normandie",0.8114256937799043,49.471576,1.343038,cas_1
71,retouch_express_5116_reparation_0478370701,housenumber,12,Rue d'Auvergne,69002,69382,Lyon,Lyon 2e Arrondissement,"69, Rhône, Auvergne-Rhône-Alpes",0.872090909090909,45.753698,4.828838,cas_1
72,machado_alexandre_192319_reparation_0667916080,housenumber,18,avenue de Clermont,63430,63284,Pont-du-Château,,"63, Puy-de-Dôme, Auvergne-Rhône-Alpes",0.9637936363636364,45.796825,3.235445,cas_1
73,france_ip_communication_182536_reparation,housenumber,52,Rue Georges Braque,83130,83062,La Garde,,"83, Var, Provence-Alpes-Côte d'Azur",0.9631072727272726,43.131425,6.021116,cas_1
74,maniere_agriviti_196610_reparation_0380202115,housenumber,21,Route de Cussy,21340,21327,Val-Mont,,"21, Côte-d'Or, Bourgogne-Franche-Comté",0.9387363636363636,47.031525,4.638357,cas_1
75,boscolo_josiane_117869_reparation,street,,la barre pilot,85700,85140,La Meilleraie-Tillay,,"85, Vendée, Pays de la Loire",0.8839041437632135,46.763465,-0.810865,cas_1
76,michelhutteau_sylvie_205796_reparation_0687194958,housenumber,18,Rue du Docteur Devignevielle,27200,27681,Vernon,,"27, Eure, Normandie",0.963791818181818,49.086429,1.481058,cas_1
77,reboul_nadege_143999_reparation_0689204151,housenumber,1,Place Hugues Panassie,31300,31555,Toulouse,,"31, Haute-Garonne, Occitanie",0.8472600478468899,43.612179,1.39628,cas_1
78,ateliers_didier_lacroix_197087_reparation_0684023559,housenumber,16,Rue Saint-vincent,71100,71076,Chalon-sur-Saône,,"71, Saône-et-Loire, Bourgogne-Franche-Comté",0.9651181818181818,46.78167,4.857773,cas_1
79,dominique_ansquer_156397_reparation,housenumber,19,Rue de la Corniche,29780,29197,Plouhinec,,"29, Finistère, Bretagne",0.9581454545454544,47.987555,-4.471099,cas_1
80,lafitte_joris_174207_reparation_0603245815,housenumber,35,Allée Villa Marie,40290,40214,Ossages,,"40, Landes, Nouvelle-Aquitaine",0.942350909090909,43.557671,-0.881232,cas_1
81,mmdpapillonne_7211_reparation_0673360643,housenumber,9,Allée de Bretagne,69005,69385,Lyon,Lyon 5e Arrondissement,"69, Rhône, Auvergne-Rhône-Alpes",0.8806118181818181,45.748151,4.782628,cas_32
82,patnet_183343_reparation_0750408582,housenumber,15,Rue du Joroux,74100,74012,Annemasse,,"74, Haute-Savoie, Auvergne-Rhône-Alpes",0.9671154545454546,46.185271,6.237838,cas_1
83,a_i_d_e_multimedia_4144_reparation_0478896653,housenumber,16,Rue Godefroy,69006,69386,Lyon,Lyon 6e Arrondissement,"69, Rhône, Auvergne-Rhône-Alpes",0.8709174025974026,45.770595,4.841576,cas_1
84,pansin_muriel_59476_reparation,housenumber,42,Route des Lacets de la Tourronde,5000,05061,Gap,,"05, Hautes-Alpes, Provence-Alpes-Côte d'Azur",0.9694772727272726,44.521043,6.0482,cas_1
85,nice_factory_66302_reparation_0233471786,housenumber,84,Avenue Division Leclerc,50200,50147,Coutances,,"50, Manche, Normandie",0.9683136363636364,49.061011,-1.434661,cas_1
86,mme_ragus_francoise_179459_reparation_0635780250,housenumber,53,Residence les Capucines,84800,84054,L'Isle-sur-la-Sorgue,,"84, Vaucluse, Provence-Alpes-Côte d'Azur",0.9686845454545452,43.925577,5.053489,cas_1
87,jjmusicaccordeons_200203_reparation_0781762950,housenumber,12,Rue de l'Aige au Carabin,21560,21021,Arc-sur-Tille,,"21, Côte-d'Or, Bourgogne-Franche-Comté",0.9518545454545454,47.340668,5.189049,cas_1
88,renard_jean_145708_reparation_0650659442,street,,Lieu Dit Molles,31190,31033,Auterive,,"31, Haute-Garonne, Occitanie",0.6173481818181817,43.373032,1.443481,cas_1
89,annickouture_11711_reparation_0625902116,housenumber,16,Boulevard Saint Louis,43000,43157,Le Puy-en-Velay,,"43, Haute-Loire, Auvergne-Rhône-Alpes",0.9676272727272726,45.042398,3.881204,cas_1
90,mlle_heyman_chantal_124989_reparation_0325902670,housenumber,7,Rue du Chemin Neuf,52500,52197,Fayl-Billot,,"52, Haute-Marne, Grand Est",0.9517927272727272,47.778209,5.598947,cas_1
91,les_creas_de_mymiba_132035_reparation_0632711455,housenumber,32,Rue de la Pépinière,67160,67544,Wissembourg,,"67, Bas-Rhin, Grand Est",0.872840022172949,49.030176,7.94624,cas_1
92,klein_jeanpierre_58772_reparation_0609980150,street,,Le Bourg,15220,15117,Marcolès,,"15, Cantal, Auvergne-Rhône-Alpes",0.9443772727272728,44.781861,2.352856,cas_1
93,fyd_multi_193887_reparation_0659198875,housenumber,569,Rue du Quai de Marles,62232,62035,Annezin,,"62, Pas-de-Calais, Hauts-de-France",0.9601463636363636,50.54538,2.633156,cas_1
94,up_and_sales_131758_reparation,housenumber,17,Rue de Rosheim,67000,67482,Strasbourg,,"67, Bas-Rhin, Grand Est",0.9765836363636362,48.580144,7.733143,cas_1
95,cazelle_angy_222881_reparation_0783459282,street,,Route de la Taillât,38570,38501,Tencin,,"38, Isère, Auvergne-Rhône-Alpes",0.6823740175953079,45.317135,5.962127,cas_1
96,m_ledoux_patrick_53769_reparation_0320507313,housenumber,8,Rue du Maréchal Foch,59320,59286,Haubourdin,,"59, Nord, Hauts-de-France",0.96517,50.60938,2.985029,cas_1
97,kidesign_178934_reparation_0489248926,housenumber,12,Rue Alphonse Daudet,6560,06152,Valbonne,,"06, Alpes-Maritimes, Provence-Alpes-Côte d'Azur",0.9603499999999998,43.623414,7.041905,cas_1
98,pgm_couesnon_76773_reparation_0323835675,housenumber,3,Avenue Ernest Couvrecelle,2400,02292,Étampes-sur-Marne,,"02, Aisne, Hauts-de-France",0.9504227272727273,49.037341,3.411798,cas_1
99,nahys_creations_158018_reparation_0634237372,housenumber,7,Montmoy,35610,35339,Trans-la-Forêt,,"35, Ille-et-Vilaine, Bretagne",0.944900909090909,48.499924,-1.610586,cas_1
100,communaute_emmaus_saint_quentin_48048_sinoe_0323510599,housenumber,35,Chemin de Lehaucourt,2100,02691,Saint-Quentin,,"02, Aisne, Hauts-de-France",0.968360909090909,49.863329,3.287643,cas_1
101,pastel_mediterranee_108698_reparation,housenumber,27,Avenue des Oliviers,6800,06027,Cagnes-sur-Mer,,"06, Alpes-Maritimes, Provence-Alpes-Côte d'Azur",0.968611818181818,43.65894,7.164994,cas_32
102,majoa_paris_194153_reparation,housenumber,22,Allée du Parc,60300,60022,Apremont,,"60, Oise, Hauts-de-France",0.8328534017595307,49.222584,2.509723,cas_1
103,nitchema_jean_216805_reparation_0652564292,housenumber,34,Rue Véron,75018,75118,PARIS,Paris 18e Arrondissement,"75, Paris, Île-de-France",0.9766763636363636,48.885033,2.335426,cas_21
104,m_flory_cedric_124741_reparation_0329620903,housenumber,35,Rue d'Alsace,88160,88369,Ramonchamp,,"88, Vosges, Grand Est",0.9568799999999998,47.893452,6.744143,cas_1
105,mme_terrisse_lucie_179467_reparation_0648341260,housenumber,1291,Chemin du Faliconnet,6950,06060,Falicon,,"06, Alpes-Maritimes, Provence-Alpes-Côte d'Azur",0.9549327272727272,43.758131,7.268154,cas_1
106,khelfi_kamal_209234_reparation,housenumber,6,Rue du Colonel Fabien,93270,93071,Sevran,,"93, Seine-Saint-Denis, Île-de-France",0.9725490909090908,48.937148,2.527957,cas_1
107,troc_mad_58198_sinoe_0562066454,housenumber,45,Rue Adolphe Cadéot,32500,32132,Fleurance,,"32, Gers, Occitanie",0.9612490909090908,43.849818,0.662604,cas_1
108,guillaume_16826_reparation,housenumber,645,Route des Pugets,6700,06123,SAINT-LAURENT-DU-VAR,,"06, Alpes-Maritimes, Provence-Alpes-Côte d'Azur",0.8360924242424241,43.688034,7.183697,cas_21
109,l_atelier_d_eole_12256_reparation_0473909503,housenumber,15,rue de la Treille,63000,63113,Clermont-Ferrand,,"63, Puy-de-Dôme, Auvergne-Rhône-Alpes",0.9733354545454546,45.776962,3.086338,cas_1
110,latelier_du_loup_et_de_la_belette_205958_reparation_0651289772,street,,La Cochardiere,50530,50027,Bacilly,,"50, Manche, Normandie",0.8789440752351096,48.694078,-1.410258,cas_1
111,mme_delvoet_valerie_56168_reparation,housenumber,84,Route de Saint Omer,59173,59497,Renescure,,"59, Nord, Hauts-de-France",0.8384555023923445,50.731451,2.363974,cas_1
112,insight_crea_180010_reparation_0626297397,housenumber,2,Place du docteur vauthier,13009,13209,Marseille,Marseille 9e Arrondissement,"13, Bouches-du-Rhône, Provence-Alpes-Côte d'Azur",0.6433045454545454,43.266593,5.407965,cas_1
113,mme_chazarenc_charlotte_148992_reparation_0607745884,housenumber,267,Chemin d’Orthoux,30140,30330,Tornac,,"30, Gard, Occitanie",0.9495154545454544,44.016512,4.004547,cas_1
114,lebenisterie_du_roy_190727_reparation_0555270282,street,,Les Pouges,19700,19194,Saint-Clément,,"19, Corrèze, Nouvelle-Aquitaine",0.7353708133971292,45.314039,1.680621,cas_1
115,m_letuppe_benjamin_77117_reparation_0651285577,housenumber,18,Rue de Valenciennes,2100,02691,SAINT-QUENTIN,,"02, Aisne, Hauts-de-France",0.903425844155844,49.864583,3.265141,cas_21
116,cobie_david_170334_reparation,street,,Vallettes,47120,47321,Villeneuve-de-Duras,,"47, Lot-et-Garonne, Nouvelle-Aquitaine",0.8409525837320573,44.75022,0.262519,cas_1
117,grandguillotte_corinne_145546_reparation_0685905482,street,,Rue Bel Air,46310,46267,SAINT-GERMAIN-DU-BEL-AIR,,"46, Lot, Occitanie",0.628242867132867,44.6463,1.441875,cas_21
118,ferrer_jean_marc_12963_reparation_0681008240,housenumber,82bis,route de Sayat,63830,63254,Nohanent,,"63, Puy-de-Dôme, Auvergne-Rhône-Alpes",0.8205044077134985,45.816302,3.056794,cas_1
119,m_fiore_tristan_186908_reparation,housenumber,10,Rue Loris Batignani,54640,54536,Tucquegnieux,,"54, Meurthe-et-Moselle, Grand Est",0.8957184257206208,49.313497,5.905889,cas_1
120,les_futees_futiles_57887_reparation,housenumber,7,Rue des Etangs Saint-Pierre,60350,60674,Vieux-Moulin,,"60, Oise, Hauts-de-France",0.8521166666666666,49.39025,2.93312,cas_1
121,m_stahle_norbert_207940_reparation,housenumber,58,Cité de la Gare,54490,54425,Piennes,,"54, Meurthe-et-Moselle, Grand Est",0.96082,49.303908,5.774042,cas_1
122,m_bughin_fabien_54507_reparation,housenumber,72,Rue de la Galère,59330,59291,Hautmont,,"59, Nord, Hauts-de-France",0.9694309090909088,50.257363,3.915149,cas_1
123,thomas_frederic_220258_reparation_0609367699,housenumber,52,Grande Rue,78720,78193,Dampierre-en-Yvelines,,"78, Yvelines, Île-de-France",0.8716053719008263,48.704066,1.984592,cas_1
124,auditech_147665_reparation_0466761989,housenumber,15,Impasse du Rastel,30000,30189,Nîmes,,"30, Gard, Occitanie",0.9715790909090908,43.861645,4.354659,cas_1
125,amls_214839_reparation,housenumber,245,Boulevard Saint-Denis,92400,92026,Courbevoie,,"92, Hauts-de-Seine, Île-de-France",0.7852211688311688,48.901662,2.272341,cas_1
126,restart_informatique_drupal_m1865_0296204792,housenumber,11,Place de Verdun,22500,22162,Paimpol,,"22, Côtes-d'Armor, Bretagne",0.6466158800773694,48.778366,-3.04853,cas_1
127,naulleau_christian_67159_reparation,street,,Rue saint-luc,85000,85155,MOUILLERON-LE-CAPTIF,,"85, Vendée, Pays de la Loire",0.839640909090909,46.721374,-1.46708,cas_21
128,cardon_sandrine_216859_reparation_0629380581,housenumber,24,Rue Hélène Brion,75013,75113,PARIS,Paris 13e Arrondissement,"75, Paris, Île-de-France",0.9768272727272728,48.82828,2.381121,cas_21
129,landeagri_153430_reparation,street,,La Ville en Bois,35420,35271,Saint-Georges-de-Reintembault,,"35, Ille-et-Vilaine, Bretagne",0.896791313131313,48.505941,-1.236177,cas_1
130,blue_grass_120166_reparation_0665344141,housenumber,17,Côte des Chapeliers,26000,26362,Valence,,"26, Drôme, Auvergne-Rhône-Alpes",0.97004,44.934942,4.889954,cas_1
131,latelier_de_lulu_couture_194030_reparation_0673012610,housenumber,178,Rue d'Ardres,62370,62057,Audruicq,,"62, Pas-de-Calais, Hauts-de-France",0.9579972727272728,50.878296,2.076259,cas_1
132,escoffre_ebeniste_208871_reparation_0140112637,housenumber,6,Rue Claude Guinot,93400,93070,SAINT-OUEN-SUR-SEINE,,"93, Seine-Saint-Denis, Île-de-France",0.9650754545454544,48.905415,2.344871,cas_21
133,zozio_by_lexou_186432_reparation_0782899588,housenumber,130,Rue de la Mer Rouge,68200,68224,MULHOUSE,,"68, Haut-Rhin, Grand Est",0.9788345454545454,47.743303,7.294308,cas_21
134,micy_51073_reparation,street,,Chemin de la digue,74100,74118,Étrembières,,"74, Haute-Savoie, Auvergne-Rhône-Alpes",0.9511609090909088,46.183442,6.228712,cas_1
135,creart_toutes_coutures_18552_reparation_0642507094,housenumber,1554,Chemin de l'Hermitan,83310,83042,Cogolin,,"83, Var, Provence-Alpes-Côte d'Azur",0.9646736363636365,43.252548,6.504308,cas_1
136,easy_clic_110386_reparation_0972314564,housenumber,8,Rue Bourgneuf,72400,72132,La Ferté-Bernard,,"72, Sarthe, Pays de la Loire",0.9631972727272728,48.185138,0.65463,cas_1
137,expertmicro_138291_reparation,housenumber,23,Route de Bray-en-val,45730,45270,SAINT-BENOÎT-SUR-LOIRE,,"45, Loiret, Centre-Val de Loire",0.9565345454545452,47.81208,2.31506,cas_21
138,jeuxvideofr_saint_marcel_58370_sinoe_0614315366,street,,Rue des Prés,27950,27562,Saint-Marcel,,"27, Eure, Normandie",0.7873525552825553,49.102383,1.451838,cas_1
139,sourisseau_laurence_134062_reparation_0616301188,street,,Rue Paul Bert,72600,72180,MAMERS,,"72, Sarthe, Pays de la Loire",0.4138472727272727,48.349572,0.369394,cas_21
140,atelier_du_jardin_176222_reparation,housenumber,180,Allee des Esclapieres,83440,83124,Seillans,,"83, Var, Provence-Alpes-Côte d'Azur",0.6561763636363637,43.586073,6.644577,cas_32
141,m_palin_jean_francois_57350_reparation,housenumber,20,Rue Bout Riffle,60000,60703,Aux Marais,,"60, Oise, Hauts-de-France",0.8741553808353808,49.406654,2.04355,cas_1
142,selection_menager_172540_reparation_0546413505,housenumber,12b,Rue Villeneuve,17000,17300,La Rochelle,,"17, Charente-Maritime, Nouvelle-Aquitaine",0.9003026535626535,46.16014,-1.147203,cas_1
143,sarl_stc_178580_reparation,street,,Chemin du Pied,5340,05101,Vallouise-Pelvoux,,"05, Hautes-Alpes, Provence-Alpes-Côte d'Azur",0.7842845454545454,44.853985,6.480988,cas_32
144,m_defert_dominique_58311_reparation,housenumber,7,Rue des Verts Cerisiers,80680,80696,Sains-en-Amiénois,,"80, Somme, Hauts-de-France",0.9527981818181818,49.817842,2.318317,cas_1
145,chanonat_gilbert_michel_144451_reparation,housenumber,9,Rue des Falaises,66290,66048,Cerbère,,"66, Pyrénées-Orientales, Occitanie",0.9486981818181818,42.444634,3.168398,cas_1
146,marco_polo_155837_reparation,housenumber,4,Rue Ernest Renan,22220,22362,Tréguier,,"22, Côtes-d'Armor, Bretagne",0.9586818181818182,48.787922,-3.230003,cas_1
147,escot_alexandre_140676_reparation_0467307639,housenumber,44,Rue Noël Sylvestre,34500,34032,Béziers,,"34, Hérault, Occitanie",0.9695918181818182,43.351891,3.224956,cas_1
148,micro_tech_121846_reparation_0983096192,housenumber,12,Rue du Havre,76170,76384,Lillebonne,,"76, Seine-Maritime, Normandie",0.9638972727272728,49.519453,0.532668,cas_1
149,daniel_perret_sarl_220489_reparation_0142012414,housenumber,48,Rue de la Villette,75019,75119,PARIS,Paris 19e Arrondissement,"75, Paris, Île-de-France",0.979831818181818,48.876947,2.387918,cas_21
150,jegard_jocelyn_181087_reparation_0613914598,housenumber,1612,Rd26 - Route de Cavaillon,13440,13018,CABANNES,,"13, Bouches-du-Rhône, Provence-Alpes-Côte d'Azur",0.8527667099567099,43.849322,4.965372,cas_21
151,interna_france_216706_reparation_0149490641,housenumber,122,Avenue Charles de Gaulle,92200,92051,Neuilly-sur-Seine,,"92, Hauts-de-Seine, Île-de-France",0.8733603496503496,48.882976,2.26717,cas_1
152,ulmaison_de_dunkerque_vestiboutique_60384_sinoe,housenumber,27,Rue Marengo,59140,59183,Dunkerque,,"59, Nord, Hauts-de-France",0.974531818181818,51.031362,2.381266,cas_1
153,malignon_fabien_142535_reparation,street,,Chemin du Pont Rouge,48220,48194,Vialas,,"48, Lozère, Occitanie",0.425310909090909,44.332293,3.899504,cas_1
154,chantier_louisien_219300_reparation_0603717439,street,,Le Rotoir Ham,91870,91081,Boissy-le-Sec,,"91, Essonne, Île-de-France",0.8233563636363637,48.495124,2.084023,cas_1
155,cgnet_11306_reparation_0471605457,housenumber,30,Rue du Collège,15100,15187,SAINT-FLOUR,,"15, Cantal, Auvergne-Rhône-Alpes",0.960000909090909,45.034286,3.0916,cas_21
156,les_doigts_dans_le_cuir_68969_reparation_0682384967,housenumber,2,Rue des Mazières,49700,49003,TUFFALUN,,"49, Maine-et-Loire, Pays de la Loire",0.9468745454545454,47.272715,-0.324304,cas_21
157,mortecrette_garma_yamina_149532_reparation_0434273251,housenumber,19,Cite le Mondas,34210,34189,Olonzac,,"34, Hérault, Occitanie",0.9567054545454544,43.279136,2.73093,cas_1
158,sc_micro_drupal_m1529_0298215769,housenumber,27,rue Hervé de Guébriant,29800,29103,Landerneau,,"29, Finistère, Bretagne",0.8538512959381044,48.450428,-4.261649,cas_1
159,les_3d_209424_reparation,housenumber,20,Rue de la Terrasse,75017,75117,PARIS,Paris 17e Arrondissement,"75, Paris, Île-de-France",0.9737227272727272,48.882441,2.314562,cas_21
160,lou_cabistou_395_reparation_0475946104,housenumber,9,Place Galimard,7600,07331,Vals-les-Bains,,"07, Ardèche, Auvergne-Rhône-Alpes",0.9540663636363635,44.665919,4.365982,cas_1
161,geslin_mathilde_143731_reparation_0647415015,housenumber,11,Impasse de la Tour,31200,31555,Toulouse,,"31, Haute-Garonne, Occitanie",0.8231103030303031,43.619743,1.43039,cas_1
162,mme_michelin_margaux_203749_reparation_0626637130,housenumber,5,Place Jacques Prevert,21000,21231,Dijon,,"21, Côte-d'Or, Bourgogne-Franche-Comté",0.9701981818181816,47.314497,5.035323,cas_1
163,allroad_214141_reparation_0626330391,housenumber,102,Rue des Freres Lumiere,93330,93050,NEUILLY-SUR-MARNE,,"93, Seine-Saint-Denis, Île-de-France",0.9173504278074864,48.866423,2.517404,cas_21
164,levy_celine_219095_reparation,housenumber,11,Rue Tholozé,75018,75118,PARIS,Paris 18e Arrondissement,"75, Paris, Île-de-France",0.9759081818181816,48.886411,2.33539,cas_21
165,limpromptu_du_13_13617_reparation_0698120870,housenumber,13,Rue saint michel,13006,13206,Marseille,Marseille 6e Arrondissement,"13, Bouches-du-Rhône, Provence-Alpes-Côte d'Azur",0.6524710489510489,43.293443,5.385769,cas_1
166,fleurs_en_bijou_179734_reparation,housenumber,89,Chemin du Mas Calendau,13150,13108,TARASCON,,"13, Bouches-du-Rhône, Provence-Alpes-Côte d'Azur",0.6675465289256197,43.752348,4.648879,cas_21
167,t2m_technique__maintenance__multiservices_219509_reparation,housenumber,56,Av du Vieu Chemin de Saint Denis,92230,92036,GENNEVILLIERS,,"92, Hauts-de-Seine, Île-de-France",0.9188187012987012,48.932525,2.313745,cas_21
168,m_lages_regis_144814_reparation,housenumber,33,Rue du Stade,65100,65002,Adé,,"65, Hautes-Pyrénées, Occitanie",0.94995,43.141642,-0.031194,cas_1
169,m_balland_julien_182806_reparation,housenumber,400,Rue du Pré Ballon,88460,88028,La Baffe,,"88, Vosges, Grand Est",0.94423,48.167757,6.571477,cas_1
170,sarl_morellet_164746_reparation_0545970445,housenumber,2,Impasse de la Fontaine,16120,16050,BONNEUIL,,"16, Charente, Nouvelle-Aquitaine",0.93651,45.579513,-0.13182,cas_21
171,ozturk_nilay_125817_reparation_0632459844,housenumber,43,Avenue Jean Jaurès,27600,27275,GAILLON,,"27, Eure, Normandie",0.9636090909090907,49.155671,1.344687,cas_21
172,amoureusement_koala_178125_reparation_0619659466,street,,Rue Isidore Blanc,13140,13063,Miramas,,"13, Bouches-du-Rhône, Provence-Alpes-Côte d'Azur",0.5385476053215078,43.582981,4.996422,cas_1
173,gt_motoculture_125705_reparation_0232579070,housenumber,21,Rue de Deauville,27560,27367,Lieurey,,"27, Eure, Normandie",0.9538890909090908,49.229996,0.496425,cas_1
174,dp_decoration_dinterieur_157276_reparation_0626964248,housenumber,95,Rue du Général de Gaulle,56300,56178,Pontivy,,"56, Morbihan, Bretagne",0.7691643680709535,48.068535,-2.964812,cas_1
175,lor_en_vert_171436_reparation,housenumber,11,rue Ada Byron,64000,64445,Pau,,"64, Pyrénées-Atlantiques, Nouvelle-Aquitaine",0.9633054545454544,43.325931,-0.329649,cas_1
176,m_amoura_ouramdane_124480_reparation_0750059472,housenumber,46,avenue du Général Bonaparte,51100,51454,Reims,,"51, Marne, Grand Est",0.976411818181818,49.227526,4.0113,cas_1
177,ms_brocante_163485_reparation_0645903149,housenumber,1,Rue des Billanges,87340,87079,La Jonchère-Saint-Maurice,,"87, Haute-Vienne, Nouvelle-Aquitaine",0.9516327272727272,45.993069,1.478357,cas_1
178,harlaut_pascal_211854_reparation_0651155357,housenumber,8bis,Avenue Frayce,93400,93070,SAINT-OUEN-SUR-SEINE,,"93, Seine-Saint-Denis, Île-de-France",0.761057520661157,48.90772,2.343385,cas_21
179,noel_sport_6141_reparation_0476792184,street,,Avenue de la Muzelle (Vénosc),38860,38253,Les Deux Alpes,,"38, Isère, Auvergne-Rhône-Alpes",0.7705409090909091,45.006032,6.121839,cas_1
180,latelier_dannie_60747_reparation_0232579911,housenumber,21,Rue de la Mairie,27260,27415,MORAINVILLE-JOUVEAUX,,"27, Eure, Normandie",0.9432981818181816,49.22228,0.44551,cas_21
181,mme_fleurent_marine_220755_reparation_0354436822,housenumber,50,Route de Bruyères,88600,88216,Grandvillers,,"88, Vosges, Grand Est",0.9506681818181818,48.239518,6.683618,cas_1
182,silbermann_metalwork_185765_reparation_0615952927,housenumber,89a,Route des Romains,67200,67482,Strasbourg,,"67, Bas-Rhin, Grand Est",0.8901207655502392,48.57845,7.710481,cas_1
183,correia_david_151820_reparation,housenumber,23,Rue Charles Thomas,34350,34324,Valras-Plage,,"34, Hérault, Occitanie",0.95921,43.248104,3.293041,cas_1
184,repair_cafe_yvelines_et_les_environs_78_1588_initiatives_locales,housenumber,1,Place du Coeur Battant,95490,95637,Vauréal,,"95, Val-d'Oise, Île-de-France",0.6992513286713286,49.030119,2.021182,cas_1
185,gillot_christian_176894_reparation_0233387717,street,,Le Rossignol,61350,61324,PASSAIS VILLAGES,,"61, Orne, Normandie",0.9424954545454544,48.498981,-0.775739,cas_21
186,julianna_58636_sinoe_0477472789,housenumber,18,Rue de la Résistance,42000,42218,Saint-Étienne,,"42, Loire, Auvergne-Rhône-Alpes",0.9764490909090908,45.439083,4.385891,cas_1
187,mg_confort_176323_reparation_0754060428,housenumber,97,rue de Durtol,63100,63113,Clermont-Ferrand,,"63, Puy-de-Dôme, Auvergne-Rhône-Alpes",0.9789827272727272,45.787992,3.060008,cas_1
188,entreprise_creiche_136220_reparation_0254794464,housenumber,3,Rue des Sablons,41120,41032,CHAILLES,,"41, Loir-et-Cher, Centre-Val de Loire",0.9516463636363636,47.512221,1.301712,cas_21
189,laurent_kermarrec_156606_reparation_0768268210,housenumber,1bis,rue de Roz Avel,29460,29045,Dirinon,,"29, Finistère, Bretagne",0.8354499999999999,48.393496,-4.274843,cas_1
190,favari_gratien_220889_reparation,housenumber,72,Grande Rue,57250,57492,Moyeuvre-Petite,,"57, Moselle, Grand Est",0.8762851948051947,49.270395,6.025837,cas_1
191,rps69_204927_reparation_0646631276,housenumber,37,Rue Maryse Bastié,69008,69388,LYON,Lyon 8e Arrondissement,"69, Rhône, Auvergne-Rhône-Alpes",0.9757727272727272,45.739088,4.874192,cas_21
192,philippe_herisset_157826_reparation_0682014042,housenumber,23,Rue des Fontaines,35320,35090,Crevin,,"35, Ille-et-Vilaine, Bretagne",0.9562709090909092,47.937956,-1.661583,cas_1
193,elhimri_hassane_138923_reparation,housenumber,8,Rue Rene Fonck,41000,41018,Blois,,"41, Loir-et-Cher, Centre-Val de Loire",0.96028,47.598482,1.313674,cas_1
194,m_wittrant_emmanuel_53884_reparation_0327779601,housenumber,250,Rue Raymond Wastiaux,59550,59474,Prisches,,"59, Nord, Hauts-de-France",0.9499481818181816,50.081716,3.764708,cas_1
195,passion_animal_155418_reparation,housenumber,2,Avenue Gontran Bienvenu,56000,56260,Vannes,,"56, Morbihan, Bretagne",0.8271847846889951,47.657281,-2.706515,cas_1
196,atelier_du_lys_dor_214433_reparation_0164375443,housenumber,306,Avenue Marcellin Berthelot,77190,77152,Dammarie-les-Lys,,"77, Seine-et-Marne, Île-de-France",0.8461959348198971,48.512776,2.63842,cas_1
197,lely_pierre_199570_reparation_0781198633,housenumber,107,Rue de Dijon,70100,70026,Arc-lès-Gray,,"70, Haute-Saône, Bourgogne-Franche-Comté",0.9631018181818182,47.454493,5.578413,cas_1
198,la_couture_de_marie_111620_reparation_0675205941,housenumber,4,Rue des Alizes,38550,38425,SAINT-MAURICE-L'EXIL,,"38, Isère, Auvergne-Rhône-Alpes",0.7533972727272727,45.387735,4.779941,cas_21
199,francoisdedrumel_angelique_100209_reparation_0243476421,housenumber,92,rue Toussaint,72000,72181,Le Mans,,"72, Sarthe, Pays de la Loire",0.9787254545454545,48.004692,0.182808,cas_1
200,latelier_193105_reparation,housenumber,43,Route D Amiens,80800,80799,Villers-Bretonneux,,"80, Somme, Hauts-de-France",0.8373837420718815,49.870699,2.510023,cas_1
201,saveurope_205009_reparation_0326023625,housenumber,8,Rue Rayet Liénart,51420,51662,Witry-lès-Reims,,"51, Marne, Grand Est",0.9556481818181816,49.283746,4.112796,cas_1
202,bezard_philippe_118551_reparation_0769114172,housenumber,8,rue Eugène Sue,72000,72181,Le Mans,,"72, Sarthe, Pays de la Loire",0.9694172727272728,48.026579,0.185675,cas_1
203,infomedia_35_154227_reparation,housenumber,13,Quai des Bateliers,35480,35176,Guipry-Messac,,"35, Ille-et-Vilaine, Bretagne",0.9567681818181818,47.822318,-1.823926,cas_1
204,d_fruchet_67699_reparation_0251079409,street,,Bellevue,85430,85161,Nieul-le-Dolent,,"85, Vendée, Pays de la Loire",0.5988647969052224,46.569371,-1.510674,cas_1
205,les_creacoeurs_de_nadege_200065_reparation_0649003626,housenumber,1,Rue du Moine,21120,21638,Til-Châtel,,"21, Côte-d'Or, Bourgogne-Franche-Comté",0.9392699999999998,47.517488,5.174637,cas_1
206,galvier_benoite_134575_reparation_0671851752,housenumber,117,Cours Tolstoï,69100,69266,Villeurbanne,,"69, Rhône, Auvergne-Rhône-Alpes",0.9816236363636364,45.761499,4.882912,cas_1
207,velhom_107748_reparation_0660638905,housenumber,68,Chemin de la Planche,14550,14076,Blainville-sur-Orne,,"14, Calvados, Normandie",0.948451818181818,49.228435,-0.296269,cas_1
208,venturi_fils_146126_reparation_0467530379,housenumber,25,Rue du Football,34200,34301,Sète,,"34, Hérault, Occitanie",0.9708027272727272,43.411698,3.675517,cas_1
209,auriane_de_vauplane_69871_reparation_0243934706,street,,Chemin  du Château,72160,72363,Tuffé Val de la Chéronne,,"72, Sarthe, Pays de la Loire",0.6529376623376624,48.128438,0.508561,cas_1
210,provence_soudage_18136_reparation_0494877169,street,,Avenue de Bruxelles,83500,83126,LA SEYNE-SUR-MER,,"83, Var, Provence-Alpes-Côte d'Azur",0.9720545454545456,43.113008,5.851172,cas_21
211,mme_vincon_nathalie_76719_reparation_0619649386,housenumber,13,Grande Rue,2860,02573,Orgeval,,"02, Aisne, Hauts-de-France",0.9380136363636362,49.507286,3.702945,cas_1
212,technique_menager_vigour_157522_reparation_0645444125,street,,Avenue de la Baie,35120,35095,Dol-de-Bretagne,,"35, Ille-et-Vilaine, Bretagne",0.8085916783216783,48.550745,-1.725303,cas_1
213,monties__fils_151098_reparation,housenumber,60,Allées Aristide Briand,32500,32132,Fleurance,,"32, Gers, Occitanie",0.8528343458980044,43.845919,0.663131,cas_1
214,mme_hernandez_laurence_151380_reparation_0638214954,street,,Impasse des Bastides du Rieu,30340,30294,Saint-Privat-des-Vieux,,"30, Gard, Occitanie",0.8968586206896552,44.123394,4.123649,cas_1
215,pierres_et_pampilles_173973_reparation_0556763223,housenumber,3,Chemin du Tucau,33210,33357,Roaillan,,"33, Gironde, Nouvelle-Aquitaine",0.6574212316715542,44.499284,-0.287928,cas_1
216,rouziou_katia_71208_reparation_0240648004,housenumber,33,Rue des Grands Champs,44210,44131,PORNIC,,"44, Loire-Atlantique, Pays de la Loire",0.9671045454545454,47.117595,-2.055127,cas_21
217,anna_couture_157637_reparation_0663184472,housenumber,15,Boulevard Solférino,35000,35238,Rennes,,"35, Ille-et-Vilaine, Bretagne",0.7421910389610389,48.104429,-1.670062,cas_1
218,gaspard_sports_2742_reparation,street,,Pl du Capitaine Bulle,73270,73034,BEAUFORT,,"73, Savoie, Auvergne-Rhône-Alpes",0.8303017016317016,45.686637,6.569416,cas_21
219,societe_nouvelle_brest_electronic_service_153641_reparation,housenumber,221,rue Anatole France,29200,29019,Brest,,"29, Finistère, Bretagne",0.9837745454545452,48.382664,-4.514245,cas_1
220,m_alix_damien_197749_reparation_0667482212,housenumber,38,Avenue Henri Varlot,71500,71263,Louhans,,"71, Saône-et-Loire, Bourgogne-Franche-Comté",0.963411818181818,46.613041,5.20718,cas_1
221,sylvain_joseph_209014_reparation_0636650867,housenumber,4,Rue du Moulin,78930,78677,Villette,,"78, Yvelines, Île-de-France",0.9435009090909092,48.928026,1.690167,cas_1
222,cordonnerie_multiservices_la_guillebot_69221_reparation_0241744436,street,,Avenue Gallieni,49130,49246,LES PONTS-DE-CÉ,,"49, Maine-et-Loire, Pays de la Loire",0.964510909090909,47.434306,-0.526043,cas_21
223,technivert_121509_reparation_0235968232,street,,ZA du Bois de l'Arc,76760,76752,Yerville,,"76, Seine-Maritime, Normandie",0.8389484415584414,49.660399,0.882955,cas_1
224,tours_dentaire_135819_reparation_0247921739,street,,La Haute Brosse,37310,37254,TAUXIGNY-SAINT-BAULD,,"37, Indre-et-Loire, Centre-Val de Loire",0.9505263636363636,47.216336,0.860972,cas_21
225,au_fil_des_matieres_15073_reparation,housenumber,27,Rue Mignet,13100,13001,Aix-en-Provence,,"13, Bouches-du-Rhône, Provence-Alpes-Côte d'Azur",0.9759654545454544,43.530887,5.450767,cas_1
226,muller_mario_166457_reparation,street,,Lieu Dit les Buissons,86310,86040,La Bussière,,"86, Vienne, Nouvelle-Aquitaine",0.7258044497607655,46.645043,0.821354,cas_1
227,boumahdaf_bruno_210022_reparation_0629244133,housenumber,366,Rue de Vaugirard,75015,75115,PARIS,Paris 15e Arrondissement,"75, Paris, Île-de-France",0.9863527272727272,48.83472,2.29126,cas_21
228,flip_47347_sinoe_0160894737,housenumber,68,Rue Saint Spire,91100,91174,Corbeil-Essonnes,,"91, Essonne, Île-de-France",0.9750936363636362,48.609697,2.48413,cas_1
229,falkenberg_jeanyves_robert_221159_reparation,street,,Quartier Beauregard,97240,97210,Le François,,"972, Martinique",0.9569681818181816,14.605978,-60.896197,cas_1
230,cecile_guiheneuc_156549_reparation_0650712429,housenumber,44,Rue Jean Jaurès,56530,56185,Quéven,,"56, Morbihan, Bretagne",0.9654763636363636,47.787128,-3.416045,cas_1
231,l_atelier_93647_reparation,housenumber,39,Rue du President Poincare,67600,67462,Sélestat,,"67, Bas-Rhin, Grand Est",0.6853438095238095,48.257184,7.454199,cas_1
232,cordonnerie_bajouservices_150454_reparation,street,,Route de Pau,65420,65226,Ibos,,"65, Hautes-Pyrénées, Occitanie",0.957000909090909,43.242405,-0.000467,cas_1
233,indepro_informatique_201183_reparation_0644021626,housenumber,38,Rue de Besançon,39100,39198,Dole,,"39, Jura, Bourgogne-Franche-Comté",0.968700909090909,47.093272,5.494803,cas_1
234,virginiebroderie_167489_reparation,housenumber,2,Route de Confolens,86160,86103,Gençay,,"86, Vienne, Nouvelle-Aquitaine",0.9537827272727272,46.372191,0.406603,cas_1
235,lacassis_couture_196965_reparation_0677491644,housenumber,6,Rue Laplace,71420,71132,CIRY-LE-NOBLE,,"71, Saône-et-Loire, Bourgogne-Franche-Comté",0.9538236363636364,46.630453,4.280404,cas_21
236,la_griotte_51710_reparation_0699519628,housenumber,81,Chemin Gastaud,6160,06004,Antibes,,"06, Alpes-Maritimes, Provence-Alpes-Côte d'Azur",0.6135637373737374,43.580317,7.094313,cas_1
237,blanche_aurelie_134382_reparation_0618553187,street,,l'Abrou Giraud,85700,85141,Menomblet,,"85, Vendée, Pays de la Loire",0.9410590909090908,46.740179,-0.734382,cas_1
238,loic_jacquemot_piano_104733_reparation_0631952036,street,,Allee des Fougeres,1480,01398,Savigneux,,"01, Ain, Auvergne-Rhône-Alpes",0.9444727272727272,46.000825,4.840627,cas_32
239,t_e_g_france_164072_reparation_0559853130,housenumber,25,Rue Bazter,64210,64035,ARBONNE,,"64, Pyrénées-Atlantiques, Nouvelle-Aquitaine",0.7820481818181818,43.445743,-1.542462,cas_21
240,maison_siana_184967_reparation_0640309223,housenumber,185,Route de la Croix Paulet,50380,50447,SAINT-AUBIN-DES-PRÉAUX,,"50, Manche, Normandie",0.9477690909090908,48.803307,-1.505425,cas_21
241,pieri_mark_162874_reparation,housenumber,35,Route de la Roche,86400,86078,Civray,,"86, Vienne, Nouvelle-Aquitaine",0.8711063636363635,46.155927,0.297831,cas_1
242,gweral_153568_reparation,street,,Rue Eugène Pottier,56100,56121,Lorient,,"56, Morbihan, Bretagne",0.9340326686217008,47.762893,-3.395628,cas_1
243,atelier_delsa_96469_reparation_0325329134,housenumber,7bis,Rue de Richebourg,52120,52114,Châteauvillain,,"52, Haute-Marne, Grand Est",0.8932701652892561,48.038716,4.919928,cas_1
244,my_crea_223125_reparation_0604473037,housenumber,32,Rue du Bourg,63260,63061,Bussières-et-Pruns,,"63, Puy-de-Dôme, Auvergne-Rhône-Alpes",0.9462481818181816,46.007868,3.228313,cas_1
245,s_2_c_58570_reparation,housenumber,3bis,Rue du Clos,80250,80214,Coullemelle,,"80, Somme, Hauts-de-France",0.8623397402597401,49.668258,2.422632,cas_1
246,aubergier_53900_reparation_0327492122,street,,Route de Valenciennes,59530,59481,Le Quesnoy,,"59, Nord, Hauts-de-France",0.964411818181818,50.25895,3.634427,cas_1
247,lonely_deco_147558_reparation_0967509521,street,,Rue du 11 Novembre 1918,30190,30061,La Calmette,,"30, Gard, Occitanie",0.9508363636363636,43.92359,4.258772,cas_1
248,schamel_franck_163474_reparation_0685732612,housenumber,6,Chemin de la Houdine,33112,33424,SAINT-LAURENT-MÉDOC,,"33, Gironde, Nouvelle-Aquitaine",0.9536272727272728,45.124977,-0.806185,cas_21
249,sdf_reve_dor_59183_reparation_0492875244,housenumber,20,Avenue Jean Giono,4100,04112,Manosque,,"04, Alpes-de-Haute-Provence, Provence-Alpes-Côte d'Azur",0.969670909090909,43.829727,5.785199,cas_1
250,duval_mario_137441_reparation,housenumber,50,Boulevard de la Liberté,18000,18033,BOURGES,,"18, Cher, Centre-Val de Loire",0.9722081818181816,47.073781,2.402452,cas_21
251,atelier_hafner_159808_reparation_0546823455,housenumber,9,Rue de la Somme,17430,17449,Tonnay-Charente,,"17, Charente-Maritime, Nouvelle-Aquitaine",0.9607827272727272,45.941867,-0.887636,cas_1
252,oliver_anne_marie_136200_reparation_0619896800,housenumber,14,Rue Fernand Léger,28300,28229,Mainvilliers,,"28, Eure-et-Loir, Centre-Val de Loire",0.9573727272727272,48.454636,1.468235,cas_1
253,menuiserie_philippe_pinsempp_17152_reparation_0493536454,housenumber,9,Avenue Caravadossi,6000,06088,Nice,,"06, Alpes-Maritimes, Provence-Alpes-Côte d'Azur",0.97869,43.711332,7.265924,cas_1
254,microtoubib_16470_reparation_0609713017,housenumber,1380,Chemin des Vignasses,6410,06018,Biot,,"06, Alpes-Maritimes, Provence-Alpes-Côte d'Azur",0.9682281818181816,43.633291,7.097949,cas_1
255,itplace_170356_reparation_0636896901,housenumber,137,Avenue Maréchal Soult,64100,64102,Bayonne,,"64, Pyrénées-Atlantiques, Nouvelle-Aquitaine",0.9722890909090908,43.483392,-1.501588,cas_1
256,m_hureaux_florian_123649_reparation,housenumber,38,Rue du Docteur Louis Michel,54000,54395,Nancy,,"54, Meurthe-et-Moselle, Grand Est",0.9708772727272726,48.676159,6.195802,cas_1
257,vincent_corsan_215251_reparation,housenumber,14,Rue de Biche,77580,77219,Guérard,,"77, Seine-et-Marne, Île-de-France",0.9527936363636365,48.833126,2.9305,cas_1
258,manneux_thibaut_214707_reparation_0633013685,housenumber,13,Rue des Cerisiers,95280,95323,Jouy-le-Moutier,,"95, Val-d'Oise, Île-de-France",0.9626872727272726,49.009682,2.048023,cas_1
259,lhotellier_isabelle_67238_reparation_0251943200,housenumber,39,Rue nationale,85110,85051,Chantonnay,,"85, Vendée, Pays de la Loire",0.9655927272727272,46.687923,-1.051427,cas_1
260,xefi_saint_flour_62760_reparation_0471607777,street,,Zone d’Amenagement Concerte Montplain Est,15100,15004,Andelat,,"15, Cantal, Auvergne-Rhône-Alpes",0.5055322943722943,45.037651,3.066162,cas_1
261,ghesquiere_helene_120819_reparation_0631321819,housenumber,1,Les 4 Sources,15250,15118,Marmanhac,,"15, Cantal, Auvergne-Rhône-Alpes",0.7192052334152333,45.017533,2.49323,cas_1
262,rasoazanadrafara_angelo_134299_reparation,street,,Rue du Pré Grasseur,44410,44072,Herbignac,,"44, Loire-Atlantique, Pays de la Loire",0.950700909090909,47.441357,-2.330893,cas_1
263,lukko_info_7454_reparation_0474297851,housenumber,15,Rue de la Chenaie,38550,38425,SAINT-MAURICE-L'EXIL,,"38, Isère, Auvergne-Rhône-Alpes",0.9570836363636362,45.406248,4.771765,cas_21
264,garage_raymond_11303_reparation_0471780534,street,,Avenue de Collandres,15400,15162,RIOM-ÈS-MONTAGNES,,"15, Cantal, Auvergne-Rhône-Alpes",0.9574545454545452,45.275638,2.661222,cas_21
265,anjuere_christelle_136215_reparation,housenumber,1,Rue Saint-chéron,28800,28057,Bouville,,"28, Eure-et-Loir, Centre-Val de Loire",0.8100716804407714,48.260048,1.376066,cas_1
266,mdnj_2693_reparation_0478262149,housenumber,427,Cours Emile Zola,69100,69266,Villeurbanne,,"69, Rhône, Auvergne-Rhône-Alpes",0.9850927272727272,45.764114,4.911226,cas_1
267,harmony_fauteuil_by_pauline_96170_reparation_0638553996,housenumber,41,Grande Rue,51130,51327,Loisy-en-Brie,,"51, Marne, Grand Est",0.9444690909090908,48.879825,3.904182,cas_1
268,brosson_marieagnes_145046_reparation,street,,Route du Verdier,12160,12162,Moyrazès,,"12, Aveyron, Occitanie",0.7085531671554252,44.327845,2.405609,cas_1
269,le_de_a_coudre_18393_reparation_0618070162,housenumber,399,Avenue de la 1ere Dfl,83220,83098,Le Pradet,,"83, Var, Provence-Alpes-Côte d'Azur",0.967631818181818,43.106742,6.017392,cas_1
270,bailleau_cecile_148542_reparation,housenumber,4,Rue Joseph Cambon,34120,34199,Pézenas,,"34, Hérault, Occitanie",0.4169136363636364,43.459873,3.422351,cas_1
271,multi_services_express_181442_reparation,street,,Avenue Denis Semeria,6300,06088,Nice,,"06, Alpes-Maritimes, Provence-Alpes-Côte d'Azur",0.9777909090909088,43.715326,7.288761,cas_32
272,meola_dante_122723_reparation,housenumber,17,Route de lyon,73160,73087,Cognin,,"73, Savoie, Auvergne-Rhône-Alpes",0.96505,45.561307,5.898415,cas_1
273,ulmaison_de_montpellier_herault_vestiboutique_58308_sinoe_0963510176,street,,Boulevard Saint-louis,34150,34114,Gignac,,"34, Hérault, Occitanie",0.9612827272727272,43.653218,3.550926,cas_1
274,demezet_odile_70358_reparation_0672732989,housenumber,4,Rue d'Allonville,44000,44109,Nantes,,"44, Loire-Atlantique, Pays de la Loire",0.9833727272727272,47.223394,-1.533227,cas_32
275,mme_cavaliere_maeva_180133_reparation_0761662132,housenumber,55,Avenue de Cannes,6160,06004,Antibes,,"06, Alpes-Maritimes, Provence-Alpes-Côte d'Azur",0.6394863157894737,43.573828,7.090567,cas_32
276,sarl_caldeyroux__loudieres_11346_reparation_0471492025,street,,Avenue Lucie Colomb,15120,15134,Montsalvy,,"15, Cantal, Auvergne-Rhône-Alpes",0.951100909090909,44.703407,2.502348,cas_1
277,en_mille_morceaux_220641_reparation_0672419958,housenumber,8,Rue Nationale,95490,95637,Vauréal,,"95, Val-d'Oise, Île-de-France",0.9698663636363636,49.035104,2.032869,cas_1
278,pettino_laurine_152371_reparation_0642761306,locality,,,9320,09065,Boussenac,,"09, Ariège, Occitanie",0.9318863636363636,42.909493,1.334278,cas_1
279,atelier_malak_176525_reparation_0676422589,housenumber,11,Avenue Bataillon Carmagnole Liberté,69120,69256,VAULX-EN-VELIN,,"69, Rhône, Auvergne-Rhône-Alpes",0.889272033898305,45.758901,4.925251,cas_21
280,arthor_sarl_177595_reparation_0494149354,street,,Avenue de l'Université,83160,83144,LA VALETTE-DU-VAR,,"83, Var, Provence-Alpes-Côte d'Azur",0.9672672727272728,43.136872,6.006115,cas_21
281,mme_meurant_francoise_53766_reparation,housenumber,623,Rue Marcel Sembat,59590,59491,Raismes,,"59, Nord, Hauts-de-France",0.9683554545454544,50.385705,3.482402,cas_1
282,tremel_patrick_70355_reparation_0240689337,housenumber,52,Rue Joseph Doury,44300,44109,Nantes,,"44, Loire-Atlantique, Pays de la Loire",0.9791290909090908,47.230257,-1.518115,cas_1
283,la_siegerie_170502_reparation_0546272258_0682100113,housenumber,32,Boulevard Émile Delmas,17000,17300,La Rochelle,,"17, Charente-Maritime, Nouvelle-Aquitaine",0.9763645454545452,46.161248,-1.210381,cas_1
284,guerin_bruno_137394_reparation_0621252229,housenumber,9bis,Rue de Moresville,28800,28153,Flacey,,"28, Eure-et-Loir, Centre-Val de Loire",0.8666951515151514,48.148183,1.346562,cas_1
285,tele_banlieue_158985_reparation_0556285211,housenumber,112ter,Avenue d'Aquitaine,33520,33075,Bruges,,"33, Gironde, Nouvelle-Aquitaine",0.819290303030303,44.876825,-0.602142,cas_1
286,mme_roulet_isabelle_145345_reparation_0466036039,housenumber,6,Rue du 4 Septembre,30700,30334,Uzès,,"30, Gard, Occitanie",0.957161818181818,44.011508,4.419565,cas_1
287,pomrainette_156393_reparation,housenumber,171,Mezedern,29870,29101,Landéda,,"29, Finistère, Bretagne",0.9589354545454544,48.594038,-4.560254,cas_1
288,boutin_cavallera_valerie_aglae_13711_reparation_0668562480,housenumber,31,Rue saint pierre,13005,13205,Marseille,Marseille 5e Arrondissement,"13, Bouches-du-Rhône, Provence-Alpes-Côte d'Azur",0.6120771328671327,43.293505,5.388226,cas_1
289,laperruque_217372_reparation,housenumber,119,Rue des Pyrénées,75020,75120,PARIS,Paris 20e Arrondissement,"75, Paris, Île-de-France",0.9866536363636362,48.856919,2.40431,cas_21
290,bourgade_polymie_101887_reparation_0596691301,street,,Reculée,97230,97228,Sainte-Marie,,"972, Martinique",0.8312117868338557,14.781443,-61.02533,cas_1
291,chez_val_202406_reparation_0610422293,housenumber,1,Impasse des Etourneaux,83210,83054,La Farlède,,"83, Var, Provence-Alpes-Côte d'Azur",0.9552327272727272,43.156167,6.034079,cas_1
292,mme_daviaud_julie_126483_reparation,housenumber,15,rue de Limoges,51100,51454,Reims,,"51, Marne, Grand Est",0.9719863636363636,49.233136,4.019232,cas_1
293,rabbit_custom_design_174744_reparation_0660244838,housenumber,35,Rue Bernard Crouzat,40400,40313,Tartas,,"40, Landes, Nouvelle-Aquitaine",0.9517,43.835252,-0.797321,cas_1
294,ceriosa_informatique_depannage_18711_reparation_0675601453_0494850009,housenumber,13,Place Maréchal Joffre,83630,83007,Aups,,"83, Var, Provence-Alpes-Côte d'Azur",0.9535463636363636,43.629461,6.223851,cas_1
295,vms_dom_5101_reparation_0622630229,street,,Lot le Clos de la Pernade,1540,01368,SAINT-JULIEN-SUR-VEYLE,,"01, Ain, Auvergne-Rhône-Alpes",0.8268730639730638,46.201316,4.958341,cas_21
296,decoformes_143402_reparation_0618343856,housenumber,10,Avenue Larrieu Thibaud,31100,31555,Toulouse,,"31, Haute-Garonne, Occitanie",0.8428227272727271,43.553934,1.405919,cas_1
297,marie_claire_kouture_155770_reparation,housenumber,3,Rue de Pont ar Groas,29890,29021,Plounéour-Brignogan-plages,,"29, Finistère, Bretagne",0.9525327272727272,48.663476,-4.324865,cas_1
298,burel_claudie_60302_reparation_0232367019,housenumber,9,Rue de l'Ancienne Forge,27120,27254,Fontaine-sous-Jouy,,"27, Eure, Normandie",0.9516372727272728,49.067628,1.290712,cas_1
299,corouge_christina_144301_reparation_0467920611,housenumber,213,Rue Gustave Flaubert,34070,34172,Montpellier,,"34, Hérault, Occitanie",0.9723081818181818,43.593799,3.847079,cas_1
300,ets_oreilly_161878_reparation_0556669729,housenumber,28,Rue Edmond Daubric,33470,33199,GUJAN-MESTRAS,,"33, Gironde, Nouvelle-Aquitaine",0.9275890476190476,44.640058,-1.068596,cas_21
301,sati_194453_reparation_0785720547,housenumber,2,Promenade Bougainville,59200,59599,TOURCOING,,"59, Nord, Hauts-de-France",0.9652354545454545,50.723963,3.166902,cas_21
302,l_atelier_bash_169921_reparation_0638431071,housenumber,31,Route du Grand Mur,24190,24309,NEUVIC,,"24, Dordogne, Nouvelle-Aquitaine",0.7929352892561983,45.109014,0.461592,cas_21
303,souchard_fitness_depan_217385_reparation,housenumber,15,Avenue Jules Ferry,78500,78586,Sartrouville,,"78, Yvelines, Île-de-France",0.8385990909090908,48.935258,2.156361,cas_1
304,magoptique_184837_reparation_0668558568,housenumber,2,Place Pierre de Gouville,50180,50002,Agneaux,,"50, Manche, Normandie",0.9552090909090908,49.11592,-1.113753,cas_1
305,m_flores_david_163061_reparation_0663405300,street,,Allée des Tilleuls,87620,87191,Séreilhac,,"87, Haute-Vienne, Nouvelle-Aquitaine",0.4957899999999999,45.766209,1.080598,cas_1
306,cordonnerie_mesnard_57744_reparation_0622358408,housenumber,40,Avenue du 8 Mai 1945,60000,60057,BEAUVAIS,,"60, Oise, Hauts-de-France",0.9705172727272726,49.44223,2.095289,cas_21
307,sabot_patrice_70256_reparation,housenumber,4,Place de la Concorde de Sèvre,44200,44109,Nantes,,"44, Loire-Atlantique, Pays de la Loire",0.9092648484848485,47.185305,-1.528233,cas_1
308,ferronnerie_chaudronnerie_entret_51870_reparation,housenumber,18,Rue Guy de Maupassant,13170,13071,LES PENNES-MIRABEAU,,"13, Bouches-du-Rhône, Provence-Alpes-Côte d'Azur",0.8461257912457911,43.418864,5.283984,cas_21
309,bouchot_kris_16344_reparation_0669901000,street,,Place Masséna,6000,06088,Nice,,"06, Alpes-Maritimes, Provence-Alpes-Côte d'Azur",0.9729372727272726,43.697682,7.270222,cas_32
310,dorette_214760_reparation,housenumber,149b,Rue du Temple,75003,75103,PARIS,Paris 3e Arrondissement,"75, Paris, Île-de-France",0.885962551319648,48.864013,2.358775,cas_21
311,m_planelles_philippe_205616_reparation_0621049309,housenumber,431,Chemin de la Berenguière,83330,83016,Le Beausset,,"83, Var, Provence-Alpes-Côte d'Azur",0.9627527272727272,43.184896,5.830934,cas_1
312,demey_services_194526_reparation_0616326537,housenumber,327,Rue des Eglantines,59640,59183,Dunkerque,,"59, Nord, Hauts-de-France",0.9704036363636364,51.017129,2.344912,cas_1
313,devoucoux_informatique_222131_reparation_0638447668,housenumber,1588,Route de Grasse,6600,06004,Antibes,,"06, Alpes-Maritimes, Provence-Alpes-Côte d'Azur",0.9756072727272724,43.597645,7.090014,cas_32
314,allo_serrure_122600_reparation,housenumber,1ter,Rue Victor Hugo,76200,76217,DIEPPE,,"76, Seine-Maritime, Normandie",0.7610936363636364,49.924545,1.075242,cas_21
315,devaux_dimitri_200347_reparation_0675673195,housenumber,3,Rue de la Tuilerie,70000,70516,Vallerois-le-Bois,,"70, Haute-Saône, Bourgogne-Franche-Comté",0.9413745454545454,47.547446,6.290588,cas_1
316,tourret_christian_111315_reparation_0689290908,housenumber,7,Rue Jean Dumazet,3600,03082,Commentry,,"03, Allier, Auvergne-Rhône-Alpes",0.9586990909090908,46.287814,2.735968,cas_1
317,ludo_motoculture_et_velo_126097_reparation_0780002963,housenumber,57,Rue de Roanne,42130,42019,Boën-sur-Lignon,,"42, Loire, Auvergne-Rhône-Alpes",0.9605063636363635,45.748179,4.004648,cas_1
318,les_tables_jarque_144526_reparation_0430780044,housenumber,1227,Avenue Theo Luce,34130,34154,Mauguio,,"34, Hérault, Occitanie",0.7102936363636363,43.61817,3.986449,cas_1
319,hapc_217829_reparation_0984250344,housenumber,21,Rue du Pont de Cesar,77570,77099,CHÂTEAU-LANDON,,"77, Seine-et-Marne, Île-de-France",0.9595681818181818,48.148178,2.736595,cas_21
320,hertu_lauriane_204390_reparation,housenumber,6,Rue du colonel Léon Faye,49100,49007,Angers,,"49, Maine-et-Loire, Pays de la Loire",0.9732563636363636,47.488393,-0.515374,cas_1
321,mandrier_sarahann_10345_reparation_0615771829,housenumber,2,Allée du Pic Vert,74940,74010,Annecy,,"74, Haute-Savoie, Auvergne-Rhône-Alpes",0.9626763636363634,45.922644,6.172461,cas_32
322,loire_informatique_68917_reparation_0241670798,housenumber,1,Rue de la Loire,49730,49361,Varennes-sur-Loire,,"49, Maine-et-Loire, Pays de la Loire",0.9544827272727272,47.230052,0.050913,cas_1
323,marie_halard_atelier_202399_reparation,housenumber,3,Montée du roucas blanc,13007,13207,Marseille,Marseille 7e Arrondissement,"13, Bouches-du-Rhône, Provence-Alpes-Côte d'Azur",0.9615918181818182,43.287842,5.366636,cas_1
324,cartech_electronique_france_173510_reparation_0660248935,housenumber,6,Rue de l’Eglise,33420,33078,Cabara,,"33, Gironde, Nouvelle-Aquitaine",0.9418518181818182,44.826615,-0.158415,cas_1
325,chevalliertisserand_virginie_136986_reparation_0659460952,locality,,,37800,37142,Maillé,,"37, Indre-et-Loire, Centre-Val de Loire",0.93606,47.065639,0.597916,cas_1
326,scsti_186467_reparation_0658473995,housenumber,110,Rue d'Illzach,68100,68224,Mulhouse,,"68, Haut-Rhin, Grand Est",0.97937,47.75771,7.345597,cas_32
327,jaulin_sophie_67984_reparation_0251407224,housenumber,9,Place du Commerce,85480,85034,Bournezeau,,"85, Vendée, Pays de la Loire",0.954241818181818,46.63593,-1.171194,cas_1
328,ets_drouhard_alain_195921_reparation,housenumber,11,rue de dole,25000,25056,Besançon,,"25, Doubs, Bourgogne-Franche-Comté",0.9825536363636362,47.23433,6.00934,cas_1
329,carre_design_163720_reparation_0663010687,housenumber,19,Boulevard du Pyla,33260,33529,La Teste-de-Buch,,"33, Gironde, Nouvelle-Aquitaine",0.9706,44.633739,-1.159538,cas_1
330,julien_cohignac_157418_reparation_0663986920,housenumber,1,Avenue des Marins,35720,35308,Mesnil-Roc'h,,"35, Ille-et-Vilaine, Bretagne",0.8118175119617224,48.446818,-1.916594,cas_1
331,m_brunet_francky_55505_reparation,housenumber,5,Rue de la Commune de Paris,62100,62193,Calais,,"62, Pas-de-Calais, Hauts-de-France",0.9749972727272728,50.944626,1.853244,cas_1
332,alexandre_menuiserie_199400_reparation,housenumber,16,Rue François Mitterrand,21850,21540,SAINT-APOLLINAIRE,,"21, Côte-d'Or, Bourgogne-Franche-Comté",0.9582845454545454,47.331256,5.092072,cas_21
333,convibicy_139_initiatives_locales,street,,Place de la Croisiere,13200,13004,Arles,,"13, Bouches-du-Rhône, Provence-Alpes-Côte d'Azur",0.9583590909090908,43.674025,4.633911,cas_1
334,le_bourvellec_sylvie_174206_reparation_0778848398,housenumber,85,Cours Marc Nouaux,33000,33063,Bordeaux,,"33, Gironde, Nouvelle-Aquitaine",0.9810681818181818,44.848139,-0.597108,cas_1
335,tapissier_de_provence_13492_reparation_0618722128,housenumber,9,Rue du Colonel Polidori,13090,13001,Aix-en-Provence,,"13, Bouches-du-Rhône, Provence-Alpes-Côte d'Azur",0.9020460079051382,43.509977,5.442131,cas_1
336,desquiens_anthony_6709_reparation_0479853411,housenumber,292,Route du chanet,73800,73276,SAINT-PIERRE-DE-SOUCY,,"73, Savoie, Auvergne-Rhône-Alpes",0.833384564007421,45.495902,6.109167,cas_21
337,avignon_perfo_52522_reparation,housenumber,1,Avenue de la Gloriette,84000,84007,Avignon,,"84, Vaucluse, Provence-Alpes-Côte d'Azur",0.9659672727272728,43.937264,4.845547,cas_1
338,liliarmor_154309_reparation_0627559196,housenumber,17,Korn Mikel,29880,29195,Plouguerneau,,"29, Finistère, Bretagne",0.9572363636363634,48.613938,-4.556403,cas_1
339,informatique_en_conscience_10319_reparation_0680346765,housenumber,3,Place des Jacobins,38130,38151,Échirolles,,"38, Isère, Auvergne-Rhône-Alpes",0.9645090909090908,45.155638,5.728628,cas_1
340,1stone_194470_reparation_0783987853,housenumber,466,Rue Jean Jaures,59410,59014,Anzin,,"59, Nord, Hauts-de-France",0.9756063636363635,50.383843,3.523427,cas_1
341,cordonnerie_172441_reparation_0683110691,housenumber,281,Rue du Pignier,24130,24182,Le Fleix,,"24, Dordogne, Nouvelle-Aquitaine",0.9504618181818182,44.875538,0.248845,cas_1
342,atelier_hemcy_201000_reparation_0687221901,housenumber,60,Rue du Clos Didier,39300,39097,CHAMPAGNOLE,,"39, Jura, Bourgogne-Franche-Comté",0.9544245454545456,46.747891,5.910701,cas_21
343,au_fil_disalaine_180364_reparation_0685964940,street,,Rue de la Bourgade,4280,04045,Céreste,,"04, Alpes-de-Haute-Provence, Provence-Alpes-Côte d'Azur",0.9519372727272728,43.856048,5.589013,cas_1
344,gonzalez_annabelle_162928_reparation_0673209963,housenumber,1534,Route de Bas,40110,40197,Morcenx-la-Nouvelle,,"40, Landes, Nouvelle-Aquitaine",0.954451818181818,43.994259,-0.882994,cas_1
345,at2p_218806_reparation,housenumber,3,Allee des Horcees,77140,77333,Nemours,,"77, Seine-et-Marne, Île-de-France",0.8478507988980716,48.279234,2.699206,cas_1
346,power_fibre_193463_reparation,housenumber,137,Boulevard Henri Martel,62210,62065,Avion,,"62, Pas-de-Calais, Hauts-de-France",0.758018995215311,50.409327,2.81455,cas_1
347,stratibois_77023_reparation_0323728721,housenumber,3,Rue de la Vieille Croix,2880,02131,Bucy-le-Long,,"02, Aisne, Hauts-de-France",0.9496754545454544,49.389971,3.40619,cas_1
348,vernisse_laura_201700_reparation_0617225769,housenumber,5,Avenue Bel Horizon,71000,71270,Mâcon,,"71, Saône-et-Loire, Bourgogne-Franche-Comté",0.9693627272727272,46.325078,4.820996,cas_1
349,retouches__brin_de_soie_16361_reparation_0951788064_0613601581,housenumber,11,Avenue Guillabert,6600,06004,Antibes,,"06, Alpes-Maritimes, Provence-Alpes-Côte d'Azur",0.968720909090909,43.578968,7.12195,cas_1
350,cycles_et_manivelles_479_initiatives_locales,housenumber,28,Rue Léon Gambetta,33130,33039,Bègles,,"33, Gironde, Nouvelle-Aquitaine",0.9694154545454544,44.807552,-0.551117,cas_1
351,bouazza_mohammed_183715_reparation_0649762483,housenumber,4,Haut Mont Roux,53210,53007,Argentré,,"53, Mayenne, Pays de la Loire",0.9502181818181816,48.083424,-0.651834,cas_1
352,les_chouettes_enchantees_179442_reparation_0615340682,housenumber,23,Avenue Frédéric Mistral,6130,06069,Grasse,,"06, Alpes-Maritimes, Provence-Alpes-Côte d'Azur",0.9708490909090908,43.649294,6.919986,cas_32
353,marteau_caroline_168803_reparation_0783303213,housenumber,67,Rue Louis Aguillon,79200,79202,Parthenay,,"79, Deux-Sèvres, Nouvelle-Aquitaine",0.9670354545454544,46.647139,-0.251332,cas_1
354,a_coeur_bois_14217_reparation_0674037831,housenumber,820,Route de Rognes,13540,13001,Aix-en-Provence,,"13, Bouches-du-Rhône, Provence-Alpes-Côte d'Azur",0.7012703208556149,43.593545,5.366622,cas_1
355,les_ailes_des_cristaux_186337_reparation_0616647554,housenumber,4,Rue des Fleurs,67203,67350,Oberschaeffolsheim,,"67, Bas-Rhin, Grand Est",0.9541836363636362,48.58402,7.643523,cas_1
356,constance_216167_reparation,housenumber,5,Rue Constance,75018,75118,PARIS,Paris 18e Arrondissement,"75, Paris, Île-de-France",0.97299,48.88535,2.333426,cas_21
357,le_ptit_plus_105409_reparation_0664896680,housenumber,23,Allee des Tilleuls,57180,57666,Terville,,"57, Moselle, Grand Est",0.9581681818181816,49.351736,6.127992,cas_1
358,bijoux_de_copines_180130_reparation,housenumber,26,Rue de la Savoie,13220,13026,Châteauneuf-les-Martigues,,"13, Bouches-du-Rhône, Provence-Alpes-Côte d'Azur",0.9113436363636362,43.387612,5.154221,cas_1
359,retouches_anais_52626_reparation_0672920296,housenumber,40,Boulevard de saint loup,13010,13210,Marseille,Marseille 10e Arrondissement,"13, Bouches-du-Rhône, Provence-Alpes-Côte d'Azur",0.6882166666666666,43.281834,5.429223,cas_1
360,bellair_design_10202_reparation_0637668434,housenumber,36,Rue du Cadran Solaire,38460,38146,Dizimieu,,"38, Isère, Auvergne-Rhône-Alpes",0.9466063636363636,45.717861,5.277039,cas_1
361,samuel_schluchter_200925_reparation_0386503192,housenumber,21,Route de Dornes,58300,58241,SAINT-GERMAIN-CHASSENAY,,"58, Nièvre, Bourgogne-Franche-Comté",0.9460272727272726,46.764566,3.388426,cas_21
362,cay_selin_216818_reparation,housenumber,26,Rue Montgallet,75012,75112,PARIS,Paris 12e Arrondissement,"75, Paris, Île-de-France",0.975270909090909,48.843506,2.387943,cas_21
363,miss_et_cie_93276_reparation_0277195859,housenumber,65,Rue Sadi Carnot,27200,27681,Vernon,,"27, Eure, Normandie",0.8199657575757575,49.094241,1.485127,cas_1
364,sellerie_andre_120503_reparation_0388666465,street,,Rue de l'Electricité,67118,67152,GEISPOLSHEIM,,"67, Bas-Rhin, Grand Est",0.8637972727272727,48.531493,7.68122,cas_21
365,brun_marc_18270_reparation_0616454104,street,,Pl de l’Egli Saint Jean Baptiste,83440,83055,Fayence,,"83, Var, Provence-Alpes-Côte d'Azur",0.6863180991735537,43.623426,6.695063,cas_1
366,valero_stephanie_149946_reparation,housenumber,4,Avenue de la Vallée du Tarn,12170,12197,Réquista,,"12, Aveyron, Occitanie",0.9546327272727272,44.031737,2.535707,cas_1
367,latelier_60470_reparation_0232514370,housenumber,10,Rue Sadi Carnot,27200,27681,Vernon,,"27, Eure, Normandie",0.8199657575757575,49.092407,1.486729,cas_1
368,robin_julien_104976_reparation_0659633502,street,,Avenue de la Coussonnière,63570,63050,BRASSAC-LES-MINES,,"63, Puy-de-Dôme, Auvergne-Rhône-Alpes",0.7827357342657343,45.416797,3.320125,cas_21
369,jo_la_perle_196997_reparation,street,,Rue des Ecoles,89450,89446,Vézelay,,"89, Yonne, Bourgogne-Franche-Comté",0.9457727272727272,47.466129,3.745983,cas_1
370,lucienmimy_gerald_216304_reparation_0615070777,housenumber,6,Rue Alexandre Soljenitsyne,91000,91228,ÉVRY-COURCOURONNES,,"91, Essonne, Île-de-France",0.9720481818181818,48.640091,2.434533,cas_21
371,cherief_mohamed_70288_reparation_0240664094,housenumber,53,Rue des Halles,44600,44184,SAINT-NAZAIRE,,"44, Loire-Atlantique, Pays de la Loire",0.9718081818181816,47.279908,-2.215274,cas_21
372,chauss_19_161726_reparation,street,,Avenue Turgot,19200,19275,Ussel,,"19, Corrèze, Nouvelle-Aquitaine",0.9634381818181816,45.543433,2.302005,cas_1
373,graslin_magali_18844_reparation_0603832043,housenumber,56,rue Alexandre Dumas,83110,83123,SANARY-SUR-MER,,"83, Var, Provence-Alpes-Côte d'Azur",0.9593209090909092,43.121064,5.802102,cas_21
374,mme_gutierrez_rojas_sandra_58426_reparation,housenumber,9,Rue Saint-Magloire,80090,80021,AMIENS,,"80, Somme, Hauts-de-France",0.96508,49.876959,2.3126,cas_21
375,remontet_pierre_marie_708_reparation_0477644503,housenumber,79,Place du 11 Novembre,42370,42182,Renaison,,"42, Loire, Auvergne-Rhône-Alpes",0.7792989177489177,46.051506,3.926413,cas_1
376,jbcl__iwik_151689_reparation,housenumber,25,Chemin des Amandiers,31700,31056,Beauzelle,,"31, Haute-Garonne, Occitanie",0.8467071561771561,43.664736,1.366949,cas_1
377,poustomis_serge_143416_reparation_0619446352,housenumber,173,Avenue du Sidobre,81100,81065,Castres,,"81, Tarn, Occitanie",0.9741354545454546,43.616312,2.268809,cas_1
378,crimsart_116729_reparation_0602297284,housenumber,3,Rue Jean Jaurès,38350,38269,La Mure,,"38, Isère, Auvergne-Rhône-Alpes",0.9639190909090908,44.90915,5.784052,cas_1
379,mr_amand_jean_michel_53950_reparation_0327470521,housenumber,188,Rue Jean Jaurès,59243,59479,Quarouble,,"59, Nord, Hauts-de-France",0.9652127272727272,50.39529,3.636494,cas_1
380,gp_line_design_171387_reparation,housenumber,13,Grand Rue,86120,86169,Morton,,"86, Vienne, Nouvelle-Aquitaine",0.9453227272727271,47.107149,-0.026111,cas_1
381,ben_el_haj_raja_142352_reparation_0467224337,housenumber,28,Boulevard de Strasbourg,34000,34172,Montpellier,,"34, Hérault, Occitanie",0.7934186776859503,43.603183,3.884369,cas_1
382,cordonnerie_aurillacoise_11339_reparation_0608566449,housenumber,35,Avenue de la République,15000,15014,Aurillac,,"15, Cantal, Auvergne-Rhône-Alpes",0.971701818181818,44.926548,2.440481,cas_1
383,ittec_group_211637_reparation_0626142630,housenumber,17,Rue de Flandre,93290,93073,Tremblay-en-France,,"93, Seine-Saint-Denis, Île-de-France",0.9720390909090908,48.942467,2.571964,cas_1
384,ab_bricolage_et_netoyage_104418_reparation_0660274118,housenumber,32,rue des Trioux,63100,63113,Clermont-Ferrand,,"63, Puy-de-Dôme, Auvergne-Rhône-Alpes",0.9728199999999998,45.802697,3.118575,cas_1
385,dutot_francois_122341_reparation_0664678351,housenumber,12,Rue André Maurois,76160,76212,Darnétal,,"76, Seine-Maritime, Normandie",0.9581718181818182,49.442112,1.155833,cas_1
386,groupe_visio_170603_reparation,housenumber,32,Rue du Serporat,33800,33063,Bordeaux,,"33, Gironde, Nouvelle-Aquitaine",0.8926381818181818,44.825825,-0.560102,cas_1
387,monique_verdelhan_1538_reparation_0476244249,housenumber,10,Rue Doyen Gosse,38400,38421,SAINT-MARTIN-D'HÈRES,,"38, Isère, Auvergne-Rhône-Alpes",0.9649318181818182,45.162093,5.764878,cas_21
388,repair_cafe_de_neuville_sur_saone_1382_initiatives_locales,housenumber,4,Impasse de la Tatière,69250,69143,Neuville-sur-Saône,,"69, Rhône, Auvergne-Rhône-Alpes",0.7127127272727273,45.874659,4.841137,cas_1
389,aurelia_prado_103918_reparation_0625232935,housenumber,34,Route Nationale 89,69690,69031,Brussieu,,"69, Rhône, Auvergne-Rhône-Alpes",0.8710242857142856,45.745477,4.538705,cas_1
390,sabbatik_106355_reparation,housenumber,11,Rue de Paris,57570,57475,Mondorff,,"57, Moselle, Grand Est",0.9462272727272728,49.50345,6.271496,cas_1
391,hujale_geedi_asad_149372_reparation_0649828506,housenumber,26,Passage Paul Gauguin,31100,31555,Toulouse,,"31, Haute-Garonne, Occitanie",0.833063875598086,43.563479,1.399498,cas_1
392,livet_cecile_12338_reparation_0660078278,housenumber,28,Rue du Monastère,63490,63415,Sauxillanges,,"63, Puy-de-Dôme, Auvergne-Rhône-Alpes",0.9520436363636362,45.551028,3.372373,cas_1
393,caron_emmanuelle_122178_reparation_0621889461,housenumber,857,Rue de la Ronce,76230,76377,Isneauville,,"76, Seine-Maritime, Normandie",0.9595390909090908,49.494821,1.139147,cas_1
394,crisalid_normandie_114920_reparation_0387659880,housenumber,172,Route de la Vallée d'Ingrès,14600,14536,LA RIVIÈRE-SAINT-SAUVEUR,,"14, Calvados, Normandie",0.9598981818181817,49.407233,0.262291,cas_21
395,rtt_reparations_travaux_transaction_136863_reparation_0254959255,street,,Le Prieure,41200,41185,Pruniers-en-Sologne,,"41, Loir-et-Cher, Centre-Val de Loire",0.5787043042671614,47.321066,1.66884,cas_1
396,lader_pere_et_fils_161123_reparation,housenumber,8bis,rue Emile Guichenné,64000,64445,Pau,,"64, Pyrénées-Atlantiques, Nouvelle-Aquitaine",0.9749645454545456,43.299434,-0.364386,cas_1
397,sarl_ruiz_143821_reparation,housenumber,46,Rue Thiers,65300,65258,Lannemezan,,"65, Hautes-Pyrénées, Occitanie",0.9632354545454545,43.124849,0.383773,cas_1
398,charpente_192766_reparation_0658431770,housenumber,8,Rue Corot,60128,60432,Mortefontaine,,"60, Oise, Hauts-de-France",0.9489545454545452,49.111519,2.600771,cas_1
399,madireg_101899_reparation_0696826464,street,,ZI de Champigny,97224,97207,Ducos,,"972, Martinique",0.7037242975206611,14.577612,-60.986349,cas_1
400,l_atelier_b_182634_reparation_0782837884,housenumber,145,Rue de Boéri,6210,06079,Mandelieu-la-Napoule,,"06, Alpes-Maritimes, Provence-Alpes-Côte d'Azur",0.96355,43.556602,6.93837,cas_32
401,gallardo_david_211771_reparation_0143707445,housenumber,37b,Rue de Montreuil,75011,75111,PARIS,Paris 11e Arrondissement,"75, Paris, Île-de-France",0.8977471900826446,48.85049,2.387203,cas_21
402,millery_philemon_222883_reparation_0479659919,housenumber,237,Avenue charles albert,73290,73179,La Motte-Servolex,,"73, Savoie, Auvergne-Rhône-Alpes",0.9628263636363636,45.598009,5.869974,cas_1
403,petit_virginie_210775_reparation,housenumber,14,Avenue Duquesne,95170,95197,Deuil-la-Barre,,"95, Val-d'Oise, Île-de-France",0.8213562237762237,48.96466,2.322641,cas_1
404,domoservices_12389_reparation_0678958153,housenumber,2,Impasse du Puy,63430,63213,Les Martres-d'Artière,,"63, Puy-de-Dôme, Auvergne-Rhône-Alpes",0.9490427272727272,45.837874,3.262562,cas_1
405,lhote_mahe_146386_reparation_0634212129,housenumber,775,Chemin du Village,32450,32454,Traversères,,"32, Gers, Occitanie",0.8151935198135197,43.530634,0.644901,cas_1
406,services_maintenance_manutention_76878_reparation,housenumber,3,Rue de la Plaine,2880,02198,Clamecy,,"02, Aisne, Hauts-de-France",0.939301818181818,49.427951,3.366431,cas_1
407,mme_normand_maite_54472_reparation_0321984533,housenumber,11,Rue Pierre et Marie Curie,62575,62139,Blendecques,,"62, Pas-de-Calais, Hauts-de-France",0.9571927272727272,50.719906,2.273134,cas_1
408,hornberger_jessica_137567_reparation,housenumber,59,Rue des Alouettes,18000,18033,Bourges,,"18, Cher, Centre-Val de Loire",0.9704545454545452,47.120948,2.393786,cas_1
409,clemcoud_114002_reparation_0659627438,housenumber,4,Avenue de Prélevet,74960,74010,ANNECY,,"74, Haute-Savoie, Auvergne-Rhône-Alpes",0.8627263101604277,45.895548,6.101674,cas_21
410,molinier_aurelien_138278_reparation_0625890507,housenumber,2,Rue du Bout de la Vigne,28310,28026,Baudreville,,"28, Eure-et-Loir, Centre-Val de Loire",0.9391090909090908,48.334307,1.905664,cas_1
411,bubry_motoculture_155855_reparation_0637381469,street,,Route de Plouay,56310,56026,Bubry,,"56, Morbihan, Bretagne",0.8179698653198653,47.961173,-3.177524,cas_1
412,m_wirtz_sylvain_221695_reparation,housenumber,4,Rue Louis Vanseveren,51520,51453,Recy,,"51, Marne, Grand Est",0.9451572727272728,48.99236,4.308891,cas_1
413,sarl_s_e_b_m_a_t_124229_reparation_0326811111,housenumber,19,Rue du Chateau,51210,51050,Bergères-sous-Montmirail,,"51, Marne, Grand Est",0.9410372727272728,48.844496,3.588526,cas_1
414,creeor_215584_reparation,housenumber,55,Rue des Petits Champs,75001,75101,PARIS,Paris 1er Arrondissement,"75, Paris, Île-de-France",0.9638618181818182,48.867187,2.334772,cas_21
415,jeuxvideofr_acheres_59440_sinoe_0139114474,housenumber,3,Avenue Wolfgang Amadeus Mozart,78260,78005,ACHÈRES,,"78, Yvelines, Île-de-France",0.957620909090909,48.960467,2.058644,cas_21
416,ti_jouets_don_bosco_drupal_m1853_0298465519,housenumber,2,Keroual Izella,29800,29237,La Roche-Maurice,,"29, Finistère, Bretagne",0.8114641241685143,48.461515,-4.22112,cas_1
417,arteli_67785_reparation,housenumber,11,Rue carnot,85300,85047,Challans,,"85, Vendée, Pays de la Loire",0.972271818181818,46.846094,-1.880352,cas_1
418,lad_neha_219119_reparation_0752545538,housenumber,57,Route des Gardes,92190,92048,Meudon,,"92, Hauts-de-Seine, Île-de-France",0.85922,48.81725,2.228768,cas_1
419,malak_a_velo_60682_sinoe_0142538262,housenumber,9,Rue Jacques Prévert,92240,92046,Malakoff,,"92, Hauts-de-Seine, Île-de-France",0.960590909090909,48.822994,2.310182,cas_1
420,dtdt_des_vosges_vestiaire_46504_sinoe_0329080770,housenumber,39,Rue du Dauphiné,88140,88114,Contrexéville,,"88, Vosges, Grand Est",0.9501027272727272,48.183066,5.89851,cas_1
421,cap_motoculture_160432_reparation_0549434044,street,,Route de Lusignan,86370,86293,VIVONNE,,"86, Vienne, Nouvelle-Aquitaine",0.9558890909090908,46.423239,0.252846,cas_21
422,rekhamdji_myriem_210419_reparation_0148374674,housenumber,12,Rue Léo Delibes,93120,93027,La Courneuve,,"93, Seine-Saint-Denis, Île-de-France",0.9655827272727272,48.926861,2.383244,cas_1
423,mega_systeme_142483_reparation_0466680000,street,,Chemin du Chai,30900,30189,Nîmes,,"30, Gard, Occitanie",0.8479499686520374,43.804988,4.315452,cas_1
424,rp_atelier_157760_reparation,housenumber,4,Rue du Lieutenant Mounier,22190,22187,Plérin,,"22, Côtes-d'Armor, Bretagne",0.9605172727272728,48.541505,-2.779843,cas_1
425,atelier_ambiance_164097_reparation,housenumber,4,les Hauts de Naudin,33750,33466,SAINT-QUENTIN-DE-BARON,,"33, Gironde, Nouvelle-Aquitaine",0.8835784562607204,44.822612,-0.26805,cas_21
426,ema_piscine_174612_reparation,housenumber,4,Chez Jean Brard,16130,16366,SEGONZAC,,"16, Charente, Nouvelle-Aquitaine",0.9461381818181815,45.631846,-0.172085,cas_21
427,mecatechnique_198145_reparation_0381413301,housenumber,23,Rue Denis Papin,25800,25578,Valdahon,,"25, Doubs, Bourgogne-Franche-Comté",0.956820909090909,47.148612,6.323342,cas_1
428,repair_cafe_moselle_nord_1051_initiatives_locales,street,,Rue du Vieux Bourg,57970,57757,Yutz,,"57, Moselle, Grand Est",0.8765080058651026,49.346732,6.180821,cas_1
429,charderon_fleur_gaelle_147515_reparation,housenumber,19,Rue François VIETE,66100,66136,PERPIGNAN,,"66, Pyrénées-Orientales, Occitanie",0.96717,42.689878,2.903442,cas_21
430,services_a_votre_porte_197607_reparation,housenumber,10,Avenue Léon Blum,25200,25388,Montbéliard,,"25, Doubs, Bourgogne-Franche-Comté",0.9611572727272726,47.496812,6.802546,cas_1
431,dehove_vincent_216543_reparation_0665361184,housenumber,15bis,Rue Montfleury,95200,95585,Sarcelles,,"95, Val-d'Oise, Île-de-France",0.8354474331550801,48.992698,2.380309,cas_1
432,adyezh_informatique_113285_reparation_0492503729,street,,Place Centrale,5100,05023,Briançon,,"05, Hautes-Alpes, Provence-Alpes-Côte d'Azur",0.6062860173160173,44.896515,6.635478,cas_1
433,alb_informatique_93713_reparation_0388000889,housenumber,23,Rue du Grunewald,67430,67514,Waldhambach,,"67, Bas-Rhin, Grand Est",0.8088384210526315,48.927837,7.219034,cas_1
434,aire2vie_193161_reparation,housenumber,58,Rue de la Baillerie,59150,59650,Wattrelos,,"59, Nord, Hauts-de-France",0.9740627272727272,50.705496,3.228175,cas_1
435,ebenisterie_ad_94455_reparation_0682888139,housenumber,15,Rue des Pres,67370,67548,Wiwersheim,,"67, Bas-Rhin, Grand Est",0.948510909090909,48.637639,7.606805,cas_1
436,ninis_crea_65953_reparation_0650762155,housenumber,23,Rue de la Plage,50460,50129,Cherbourg-en-Cotentin,,"50, Manche, Normandie",0.9689045454545454,49.667239,-1.696764,cas_32
437,rouane_genevieve_149895_reparation_0562185554,housenumber,46,Avenue Louis Pasteur,31570,31480,Sainte-Foy-d'Aigrefeuille,,"31, Haute-Garonne, Occitanie",0.858270082644628,43.546109,1.622939,cas_1
438,mme_tramon_nathalie_195332_reparation_0774255560,housenumber,26,Rue de la Pomme Rouge,2100,02691,SAINT-QUENTIN,,"02, Aisne, Hauts-de-France",0.9104719834710742,49.846599,3.278564,cas_21
439,poitevin_adeline_137573_reparation,housenumber,1,Rue du Gros Chêne,28270,28308,Prudemanche,,"28, Eure-et-Loir, Centre-Val de Loire",0.9375863636363636,48.728786,1.128819,cas_1
440,mobitech_drupal_m1699_0981365512,housenumber,9,Rue Suzanne Lanoy,59490,59574,Somain,,"59, Nord, Hauts-de-France",0.9680245454545452,50.358027,3.279896,cas_1
441,mm_gehin_guy_181725_reparation_0689863767,housenumber,223,Chemin du Haut Abrian,84100,84087,Orange,,"84, Vaucluse, Provence-Alpes-Côte d'Azur",0.8883008353808354,44.158078,4.821604,cas_1
442,atelier_martinez_138125_reparation_0685648884,housenumber,6,Rue Chevrier,41100,41269,Vendôme,,"41, Loir-et-Cher, Centre-Val de Loire",0.9642963636363636,47.801096,1.058277,cas_1
443,madame_steiler_clarisse_105700_reparation_0686956636,street,,Rue de la Gare,57640,57072,BETTELAINVILLE,,"57, Moselle, Grand Est",0.9433545454545452,49.235543,6.302039,cas_21
444,pierres_de_vie_221395_reparation_0768132434,housenumber,35,Rue du General Koenig,67110,67388,Reichshoffen,,"67, Bas-Rhin, Grand Est",0.8330955602536997,48.930971,7.65861,cas_1
445,le_cordonnier_roy_66752_reparation_0240482531,housenumber,4,Rue du Couédic,44000,44109,Nantes,,"44, Loire-Atlantique, Pays de la Loire",0.9726254545454543,47.2141,-1.557155,cas_1
446,optimum_services_141919_reparation_0562237711,housenumber,3,Rue Pierre Semard,31600,31547,Seysses,,"31, Haute-Garonne, Occitanie",0.8490280716253443,43.49085,1.313299,cas_1
447,emery_catherine_217488_reparation,housenumber,11,Rue du Télégraphe,92000,92050,Nanterre,,"92, Hauts-de-Seine, Île-de-France",0.9693709090909092,48.878119,2.21166,cas_1
448,ab_informatique_157155_reparation_0698866302,street,,La Ferrière,56930,56173,Pluméliau-Bieuzy,,"56, Morbihan, Bretagne",0.7568193506493506,47.973016,-2.925096,cas_1
449,monsieur_nugara_leonardo_105704_reparation_0671488270,housenumber,4,Impasse des Oeillets,57890,57765,Diesen,,"57, Moselle, Grand Est",0.6982052088452088,49.174846,6.681593,cas_1
450,etablissements_gradassi_124581_reparation_0325378763,housenumber,4,Rue Gaston Brodart,10700,10006,Arcis-sur-Aube,,"10, Aube, Grand Est",0.9464281818181818,48.533178,4.15859,cas_1
451,m_blanc_jeanmarc_146979_reparation_0664413179,housenumber,58c,Impasse du Pequelet,30900,30189,Nîmes,,"30, Gard, Occitanie",0.8933369696969695,43.848668,4.336028,cas_1
452,derriere_lecorce_200861_reparation_0384686261,housenumber,16,Rue du Magnoray,70000,70208,Échenoz-le-Sec,,"70, Haute-Saône, Bourgogne-Franche-Comté",0.9458090909090908,47.538403,6.118594,cas_1
453,rousselle_sonia_138950_reparation,housenumber,12,Rue Aristide Briand,28700,28015,Auneau-Bleury-Saint-Symphorien,,"28, Eure-et-Loir, Centre-Val de Loire",0.9595672727272726,48.462019,1.768047,cas_1
454,picot_51884_reparation_0661497103,street,,Route des Loubes,83400,83069,Hyères,,"83, Var, Provence-Alpes-Côte d'Azur",0.833628953168044,43.112995,6.105152,cas_1
455,monsieur_bureau_eddy_125071_reparation_0627520834,housenumber,11,Rue de la Chervau,52700,52444,Saint-Blin,,"52, Haute-Marne, Grand Est",0.8712633014354065,48.271401,5.409916,cas_1
456,bigbangdesign_175106_reparation_0952060154,housenumber,1,Lieu Dit le Haut Ligat,33710,33067,Bourg,,"33, Gironde, Nouvelle-Aquitaine",0.7211364935064934,45.042143,-0.535824,cas_1
457,ets_ramseyer_2675_reparation_0477718680,street,,Rue Alexandre Raffin,42300,42187,ROANNE,,"42, Loire, Auvergne-Rhône-Alpes",0.966561818181818,46.033508,4.067136,cas_21
458,les_creations_dandreane_115662_reparation_0650365801,housenumber,23,Rue des Mesanges,1960,01405,Servas,,"01, Ain, Auvergne-Rhône-Alpes",0.9506545454545452,46.131465,5.161531,cas_1
459,atelier_jerome_richard_92591_reparation_0231799317,housenumber,18,Rue Paul Le Brethon,14320,14349,LAIZE-CLINCHAMPS,,"14, Calvados, Normandie",0.9518172727272728,49.078795,-0.406546,cas_21
460,latelier_du_dragon_feuillu_201225_reparation,housenumber,1,Chemin des Vareilles du Milieu,25220,25112,Chalezeule,,"25, Doubs, Bourgogne-Franche-Comté",0.9506172727272728,47.249498,6.062353,cas_1
461,m_levasseur_cedric_57881_reparation_0676971183,housenumber,16,Lieu Dit Colagnies des Bois,60220,60566,SAINT-ARNOULT,,"60, Oise, Hauts-de-France",0.7168999828473414,49.638248,1.785129,cas_21
462,m_laprin_julien_144304_reparation_0466223975,housenumber,134,Allee des Genets,30390,30012,Aramon,,"30, Gard, Occitanie",0.958871818181818,43.898756,4.691327,cas_1
463,bebe_a_bord_able_58943_sinoe_0962311384,housenumber,72,Rue Ampère,83260,83047,La Crau,,"83, Var, Provence-Alpes-Côte d'Azur",0.9614954545454544,43.13299,6.07039,cas_1
464,creatstyle_bijoux_199230_reparation_0634542038,housenumber,73,Grande Rue,70300,70098,Brotte-lès-Luxeuil,,"70, Haute-Saône, Bourgogne-Franche-Comté",0.9446909090909092,47.755014,6.344782,cas_1
465,tm_214426_reparation,housenumber,2,Rue Charles Silvestri,94300,94080,Vincennes,,"94, Val-de-Marne, Île-de-France",0.9712972727272726,48.848054,2.442943,cas_1
466,m_mayer_claude_55254_reparation,street,,Rue de Wazemmes,59000,59350,Lille,,"59, Nord, Hauts-de-France",0.4635085714285713,50.622842,3.0607,cas_1
467,el_couture_165901_reparation_0622061909,street,,Boulevard Lakanal,24000,24322,Périgueux,,"24, Dordogne, Nouvelle-Aquitaine",0.8043243822843822,45.179997,0.721307,cas_1
468,m_guitoumourgues_emile_206729_reparation,street,,La Murelle,11540,11322,Roquefort-des-Corbières,,"11, Aude, Occitanie",0.9436763636363636,43.000709,2.96923,cas_1
469,sandy_coud_et_decoud_185850_reparation_0612756744,housenumber,22,Rue du Haldenbourg,67450,67309,Mundolsheim,,"67, Bas-Rhin, Grand Est",0.9606045454545452,48.63466,7.706532,cas_1
470,latelier_de_tata_paulette_205127_reparation_0685345165,housenumber,3,Rue de La Charité,4300,04088,Forcalquier,,"04, Alpes-de-Haute-Provence, Provence-Alpes-Côte d'Azur",0.9517627272727271,43.958042,5.78088,cas_1
471,atelier_tac_139442_reparation_0234505319,housenumber,97,Rue de la Gare,45000,45234,Orléans,,"45, Loiret, Centre-Val de Loire",0.9774427272727272,47.913191,1.901936,cas_1
472,mme_cifuentes_marta_147821_reparation_0752044278,housenumber,38,Rue des Chaudronniers,30120,30170,Molières-Cavaillac,,"30, Gard, Occitanie",0.947970909090909,43.975781,3.57596,cas_1
473,la_manufactur_et_cie_10366_reparation_0973656565,housenumber,52,Rue Roger Salengro,69200,69259,VÉNISSIEUX,,"69, Rhône, Auvergne-Rhône-Alpes",0.9720936363636364,45.720507,4.869094,cas_21
474,nhingsavath_laurent_139156_reparation,housenumber,67,Rue Eugène Turbat,45100,45234,Orléans,,"45, Loiret, Centre-Val de Loire",0.9769463636363636,47.888032,1.907147,cas_1
475,b2assist_149890_reparation,housenumber,12,Rue Albert Einstein,48000,48095,Mende,,"48, Lozère, Occitanie",0.8183525874125873,44.52823,3.46674,cas_1
476,ptite_souris_184897_reparation_0626186108,housenumber,57,Rue de la Valette,50580,50236,La Haye,,"50, Manche, Normandie",0.9609327272727272,49.301115,-1.66937,cas_32
477,fanny_look_219798_reparation,street,,Boulevard Saint-Martin,75010,75110,PARIS,Paris 10e Arrondissement,"75, Paris, Île-de-France",0.6724251597051597,48.868734,2.358261,cas_21
478,bachere_remi_joailler_createur_166991_reparation_0661214081,housenumber,304,Avenue du Touring Club de France,40150,40304,SOORTS-HOSSEGOR,,"40, Landes, Nouvelle-Aquitaine",0.9663245454545452,43.657039,-1.42911,cas_21
479,henriet_arnaud_215395_reparation_0160708285,housenumber,1,Rue Couverte,77430,77079,Champagne-sur-Seine,,"77, Seine-et-Marne, Île-de-France",0.955561818181818,48.405243,2.798038,cas_1
480,cirimail_informatique_213442_reparation,housenumber,83,Avenue Pierre Colongo,93290,93073,Tremblay-en-France,,"93, Seine-Saint-Denis, Île-de-France",0.8630218367346938,48.939086,2.58382,cas_1
481,sylvie_le_vu_156675_reparation_0668891675,housenumber,3,Impasse Enezy,56250,56137,Monterblanc,,"56, Morbihan, Bretagne",0.7851052892561983,47.741367,-2.675642,cas_1
482,lilie_et_nana_122498_reparation_0608121056,housenumber,21,Route de la Verrerie,76390,76166,LE CAULE-SAINTE-BEUVE,,"76, Seine-Maritime, Normandie",0.9410427272727272,49.767948,1.60309,cas_21
483,pontramont_william_14044_reparation_0660594395,housenumber,4,Rue fonderie vieille,13002,13202,Marseille,Marseille 2e Arrondissement,"13, Bouches-du-Rhône, Provence-Alpes-Côte d'Azur",0.6605466115702479,43.297184,5.36656,cas_1
484,mme_farineau_ludivine_54361_reparation,housenumber,27,Rue des Verts Fosses,62232,62841,Vendin-lès-Béthune,,"62, Pas-de-Calais, Hauts-de-France",0.9511645454545454,50.543621,2.596658,cas_1
485,mme_da_silva_faria_paula_97826_reparation,housenumber,43,Rue de Strasbourg,55500,55291,Ligny-en-Barrois,,"55, Meuse, Grand Est",0.9633809090909092,48.6888,5.325961,cas_1
486,la_vieille_planche_15347_reparation_0670268398,housenumber,13,Rue de Clastres,13114,13079,Puyloubier,,"13, Bouches-du-Rhône, Provence-Alpes-Côte d'Azur",0.8706815584415584,43.52612,5.674818,cas_1
487,mme_boyer_mallaury_123823_reparation,housenumber,23,Rue Ferri III,54000,54395,Nancy,,"54, Meurthe-et-Moselle, Grand Est",0.8539543108504398,48.684203,6.174545,cas_1
488,high_mountain_gems_62798_reparation,housenumber,130,Route du Pont,74310,74143,Les Houches,,"74, Haute-Savoie, Auvergne-Rhône-Alpes",0.9608945454545452,45.895898,6.815097,cas_1
489,bois_acier_creations_101474_reparation_0750581578,housenumber,101,Allee Maurice Utrillo,26500,26058,Bourg-lès-Valence,,"26, Drôme, Auvergne-Rhône-Alpes",0.9579163636363636,44.948148,4.90759,cas_1
490,ulmaison_de_villeneuve_sur_lot_vestiboutique_47791_sinoe_0553703487,housenumber,28,Rue Tout y Croît,47300,47323,Villeneuve-sur-Lot,,"47, Lot-et-Garonne, Nouvelle-Aquitaine",0.9691072727272726,44.409989,0.701703,cas_1
491,creation_emmanuel_laurent_2525_reparation_0664744856,housenumber,112,Rue Docteur Edmond Locard,69005,69385,Lyon,Lyon 5e Arrondissement,"69, Rhône, Auvergne-Rhône-Alpes",0.7554725108225108,45.760951,4.794843,cas_1
492,bope_informatique_161669_reparation,housenumber,310,Avenue du 11 Novembre,40600,40046,Biscarrosse,,"40, Landes, Nouvelle-Aquitaine",0.9640381818181818,44.391039,-1.166422,cas_1
493,pauline_beaupere_156650_reparation,street,,La Corbinais,22980,22318,Saint-Michel-de-Plélan,,"22, Côtes-d'Armor, Bretagne",0.939031818181818,48.470974,-2.2293,cas_1
494,arrobase_micro_47_161687_reparation,housenumber,30,Rue Paouzadou,47240,47032,Bon-Encontre,,"47, Lot-et-Garonne, Nouvelle-Aquitaine",0.9582536363636364,44.202455,0.640308,cas_1
495,mme_hermant_ghislaine_193413_reparation_0615861039,housenumber,700,Rue du Palentin,62610,62174,Brêmes,,"62, Pas-de-Calais, Hauts-de-France",0.95481,50.867715,1.963437,cas_1
496,le_conte_phone_66533_reparation_0689107691,housenumber,270,Rue Leopold Senghor,50000,50502,SAINT-LÔ,,"50, Manche, Normandie",0.8367110147991542,49.106133,-1.075243,cas_21
497,la_compagnie_des_motos_154999_reparation,street,,allée de Betton,35520,35177,La Mézière,,"35, Ille-et-Vilaine, Bretagne",0.7732463636363637,48.200706,-1.732994,cas_1
498,mr_mabille_brice_170520_reparation,housenumber,169,Rue des Freres Jamain,17300,17299,Rochefort,,"17, Charente-Maritime, Nouvelle-Aquitaine",0.9721927272727272,45.937938,-0.97708,cas_1
499,allain_patrice_121772_reparation,housenumber,47,Rue Albert Dubost,76250,76216,Déville-lès-Rouen,,"76, Seine-Maritime, Normandie",0.9633436363636362,49.458261,1.060049,cas_1
500,creations_agnes_60474_reparation_0699534839,housenumber,6,Rue de la Brique,27920,27589,SAINT-PIERRE-DE-BAILLEUL,,"27, Eure, Normandie",0.9435481818181818,49.135503,1.393105,cas_21
501,maison_laoui_217688_reparation,housenumber,231,Rue Saint-Honoré,75001,75101,PARIS,Paris 1er Arrondissement,"75, Paris, Île-de-France",0.9734536363636364,48.866214,2.329198,cas_21
502,madwood_220856_reparation_0684540144,housenumber,5,Rue des Charmilles,78460,78160,Chevreuse,,"78, Yvelines, Île-de-France",0.9537727272727272,48.709743,2.062059,cas_1
503,winterstein_martin_163707_reparation,housenumber,7,Lieu Dit Clairsienne,33230,33218,Lagorce,,"33, Gironde, Nouvelle-Aquitaine",0.6292478624078623,45.081003,-0.166729,cas_1
504,archambot_carole_169222_reparation_0623018066,housenumber,205,Rue du Canal Blanc,40150,40004,Angresse,,"40, Landes, Nouvelle-Aquitaine",0.9510672727272724,43.652525,-1.371961,cas_1
505,les_bicyclettes_du_grenier_52145_reparation_0689745497,housenumber,228,rue de Blanzat,63100,63113,Clermont-Ferrand,,"63, Puy-de-Dôme, Auvergne-Rhône-Alpes",0.9829663636363636,45.801635,3.086637,cas_1
506,m_gritti_thibaut_123872_reparation,housenumber,3,Allée des Orchidées,54260,54118,Charency-Vezin,,"54, Meurthe-et-Moselle, Grand Est",0.9382281818181818,49.490605,5.515676,cas_1
507,pierre_talec_152701_reparation,housenumber,15,rue Général Galliéni,29200,29019,Brest,,"29, Finistère, Bretagne",0.977801818181818,48.388461,-4.510807,cas_1
508,eurl_teknico_168551_reparation_0662074784,street,,Route de Lasse,64220,64538,Uhart-Cize,,"64, Pyrénées-Atlantiques, Nouvelle-Aquitaine",0.8678890082644628,43.162045,-1.247556,cas_1
509,latelier_de_raymonde_203733_reparation_0786381251,housenumber,15,Rue du Chalet Bleu,71400,71014,Autun,,"71, Saône-et-Loire, Bourgogne-Franche-Comté",0.95983,46.962628,4.306749,cas_1
510,atelier_landes_52842_reparation,housenumber,5,Rue Lasteyras,63300,63430,Thiers,,"63, Puy-de-Dôme, Auvergne-Rhône-Alpes",0.9594654545454544,45.854573,3.547322,cas_1
511,art_des_choix_du_bois_5104_reparation_0475370139,housenumber,35,Chemin du Pradet,7200,07190,Rochecolombe,,"07, Ardèche, Auvergne-Rhône-Alpes",0.9391009090909088,44.535426,4.436182,cas_1
512,desplos_michel_serge_141270_reparation,housenumber,7,Côte du Tarn,81600,81099,Gaillac,,"81, Tarn, Occitanie",0.8437161290322579,43.898597,1.894672,cas_1
513,bernard_philippe_190533_reparation_0546068155,housenumber,10,ZAC du Pre Chardon,17120,17425,Semussac,,"17, Charente-Maritime, Nouvelle-Aquitaine",0.812023875598086,45.60414,-0.913006,cas_1
514,wonder_women_of_the_world_216445_reparation,housenumber,60,Rue Saint-Antoine,75004,75104,PARIS,Paris 4e Arrondissement,"75, Paris, Île-de-France",0.9727227272727272,48.854323,2.363968,cas_21
515,baudry_maxime_214499_reparation_0664516360,housenumber,17,Rue du Fort,95450,95625,Us,,"95, Val-d'Oise, Île-de-France",0.9518145454545454,49.100424,1.964899,cas_1
516,cash_31_toulouse_sud_47025_sinoe_0561725787,street,,Route d'Espagne,31120,31433,Portet-sur-Garonne,,"31, Haute-Garonne, Occitanie",0.9674545454545456,43.53222,1.407599,cas_1
517,luiceanu_lutherie_216258_reparation_0621007276,housenumber,58,Rue de la Villette,75019,75119,PARIS,Paris 19e Arrondissement,"75, Paris, Île-de-France",0.979831818181818,48.877544,2.387989,cas_21
518,charre_noemye_148364_reparation,housenumber,1bis,Rue Peytal,34140,34157,Mèze,,"34, Hérault, Occitanie",0.8035648484848484,43.424081,3.605804,cas_1
519,ateris_informatique_67918_reparation,housenumber,11bis,Rue de la Métairie,85500,85109,Les Herbiers,,"85, Vendée, Pays de la Loire",0.8530634368070953,46.860797,-1.012679,cas_1
520,top_shop_5741_reparation,street,,Route du laitelet,73550,73015,LES ALLUES,,"73, Savoie, Auvergne-Rhône-Alpes",0.5009036363636363,45.374416,6.573317,cas_21
521,wspwelding_structure_and_pipingservicos_industrias_sa_216396_reparation,housenumber,5,Allée de la Rhubarbe,78260,78005,Achères,,"78, Yvelines, Île-de-France",0.8593653535353535,48.963956,2.060607,cas_1
522,mr_begaudeau_thierry_167769_reparation_0674135814,housenumber,20,Rue de la Gare,17400,17226,Mazeray,,"17, Charente-Maritime, Nouvelle-Aquitaine",0.9497072727272726,45.903892,-0.564453,cas_1
523,m_koljibabic_sinisa_56343_reparation,street,,Rue de la Paix,59120,59360,Loos,,"59, Nord, Hauts-de-France",0.5910854545454545,50.608333,3.008976,cas_1
524,construction_renov__nature_184869_reparation,housenumber,55,Rue de la Libération,50240,50487,SAINT-JAMES,,"50, Manche, Normandie",0.965340909090909,48.522743,-1.323582,cas_21
525,mme_lebrun_catherine_96122_reparation,housenumber,6,Rue de la Regale,51300,51598,Vauclerc,,"51, Marne, Grand Est",0.947731818181818,48.710788,4.659291,cas_1
526,guillemette__cie_179996_reparation_0623710067,housenumber,20,Rue Pasteur,83310,83042,Cogolin,,"83, Var, Provence-Alpes-Côte d'Azur",0.9609654545454543,43.250781,6.533913,cas_1
527,m_dufrenoy_nicolas_54847_reparation,housenumber,202,Rue de Saint-venant,62232,62035,Annezin,,"62, Pas-de-Calais, Hauts-de-France",0.8440416953316953,50.54145,2.624993,cas_1
528,domingos_cathy_150019_reparation_0682560330,housenumber,4,Chemin de Peyraguere,31350,31108,Cardeilhac,,"31, Haute-Garonne, Occitanie",0.8025990909090908,43.197071,0.662264,cas_1
529,liepmann_francois_139264_reparation,housenumber,50,Rue Nationale,37150,37073,Chisseaux,,"37, Indre-et-Loire, Centre-Val de Loire",0.9543263636363636,47.331143,1.09408,cas_1
530,star_retouches_211669_reparation,housenumber,12,Rue Jean Jaurès,77410,77118,Claye-Souilly,,"77, Seine-et-Marne, Île-de-France",0.9678427272727272,48.944711,2.682628,cas_1
531,atol_184765_reparation,housenumber,2,Parc d’Activite de la Baie,50300,50025,AVRANCHES,,"50, Manche, Normandie",0.7166800422832981,48.655899,-1.34889,cas_21
532,stylo_en_bois_tourne_198520_reparation,housenumber,375,Chemin de Narfoux,71290,71213,La Genête,,"71, Saône-et-Loire, Bourgogne-Franche-Comté",0.94525,46.53498,5.034072,cas_1
533,magne_willy_5635_reparation_0681839215,housenumber,59,Chemin du Temple,42640,42284,Saint-Romain-la-Motte,,"42, Loire, Auvergne-Rhône-Alpes",0.9494054545454544,46.081479,4.014775,cas_1
534,unik_109430_reparation_0962646198,housenumber,41,les Jasses de la Sauvagine,13460,13096,Saintes-Maries-de-la-Mer,,"13, Bouches-du-Rhône, Provence-Alpes-Côte d'Azur",0.8993812634822803,43.521162,4.402638,cas_1
535,alsacrea_187009_reparation_0621581014,housenumber,18,Route de Haguenau,67340,67222,Ingwiller,,"67, Bas-Rhin, Grand Est",0.8581262626262626,48.865738,7.480939,cas_1
536,meldor_209595_reparation,housenumber,17,Rue de Châteaudun,75009,75109,PARIS,Paris 9e Arrondissement,"75, Paris, Île-de-France",0.9734309090909092,48.875835,2.339245,cas_21
537,eden_skate_133815_reparation,housenumber,1,Impasse de l'Angenardière,72540,72017,Auvers-sous-Montfaucon,,"72, Sarthe, Pays de la Loire",0.9377781818181816,48.006666,-0.071943,cas_1
538,exbrayat_poncet_sarah_136662_reparation,housenumber,4,Allee de Savoie,41000,41018,Blois,,"41, Loir-et-Cher, Centre-Val de Loire",0.9611081818181816,47.595321,1.332814,cas_1
539,pages_joaillier_168575_reparation,housenumber,44,rue maréchal Joffre,64000,64445,Pau,,"64, Pyrénées-Atlantiques, Nouvelle-Aquitaine",0.8926379144385026,43.29538,-0.373079,cas_1
540,iglesias_christelle_216660_reparation_0618939096,housenumber,1,Sente de la Ferme,77450,77498,Vignely,,"77, Seine-et-Marne, Île-de-France",0.93341,48.931897,2.809358,cas_1
541,compagnon_xavier_69348_reparation,municipality,,,49170,49283,SAINT-GEORGES-SUR-LOIRE,,"49, Maine-et-Loire, Pays de la Loire",0.6532062084257206,47.396984,-0.755571,cas_21
542,grespan_caroline_150806_reparation_0688945192,housenumber,4,Place du 19 Mars 1962,81400,81033,Blaye-les-Mines,,"81, Tarn, Occitanie",0.9529818181818182,44.039532,2.15056,cas_1
543,la_boite_a_clous_118402_reparation,housenumber,24,Rue de l'Ancien HÃ´tel de Ville,43140,43177,SAINT-DIDIER-EN-VELAY,,"43, Haute-Loire, Auvergne-Rhône-Alpes",0.7824261904761904,45.302211,4.276379,cas_21
544,les_fantaisies_de_mary_194970_reparation_0660055151,housenumber,43,Rue de Fressain,59234,59620,Villers-au-Tertre,,"59, Nord, Hauts-de-France",0.9522663636363636,50.300063,3.18255,cas_1
545,les_compagnons_des_alpilles_202045_reparation_0607214498,housenumber,11,Rue Bénézet,13200,13004,Arles,,"13, Bouches-du-Rhône, Provence-Alpes-Côte d'Azur",0.964660909090909,43.675203,4.620125,cas_1
546,gsi_consolidated_202266_reparation,housenumber,155,Allee de Paris,83500,83126,La Seyne-sur-Mer,,"83, Var, Provence-Alpes-Côte d'Azur",0.968111818181818,43.110646,5.850385,cas_1
547,brun_aline_144238_reparation,housenumber,117,Place des Martyrs de la Resistance,34400,34145,Lunel,,"34, Hérault, Occitanie",0.802340909090909,43.675524,4.133644,cas_1
548,rondes_et_si_belles_211003_reparation,housenumber,45bis,Avenue Gabriel Péri,91700,91549,SAINTE-GENEVIÈVE-DES-BOIS,,"91, Essonne, Île-de-France",0.7988112987012986,48.650752,2.317771,cas_21
549,m_guillemot_fabien_58639_reparation,street,,Rue du Parc,80130,80368,Friville-Escarbotin,,"80, Somme, Hauts-de-France",0.7318932372505543,50.079608,1.536686,cas_1
550,quazar_105694_reparation_0983817005,housenumber,36,Avenue Clémenceau,57400,57630,Sarrebourg,,"57, Moselle, Grand Est",0.8001416528925619,48.732802,7.05399,cas_1
551,creasab_203681_reparation_0602726223,housenumber,7,Rue de la Croix Blanche,21460,21198,Corrombles,,"21, Côte-d'Or, Bourgogne-Franche-Comté",0.9461463636363636,47.515269,4.190677,cas_1
